[
  {
    "name": "Oasis Petrol Station",
    "address": "Kaplong-Narok-Maai Road, Bomet",
    "city": "Bomet",
    "county": "Bomet",
    "brand": null,
    "latitude": -0.7972401,
    "longitude": 35.3484925,
    "phone": null,
    "hours": null
  },
  {
    "name": "Riva Petrol Station, Bomet",
    "address": "B3, Bomet",
    "city": "Bomet",
    "county": "Bomet",
    "brand": "Riva",
    "latitude": -0.7779672,
    "longitude": 35.3394004,
    "phone": null,
    "hours": null
  },
  {
    "name": "Rubis",
    "address": "B3, Bomet",
    "city": "Bomet",
    "county": "Bomet",
    "brand": "Rubis",
    "latitude": -0.7795719,
    "longitude": 35.3408532,
    "phone": null,
    "hours": null
  },
  {
    "name": "Kuskong Petroleum",
    "address": "B3, Sotik",
    "city": "Sotik",
    "county": "Bomet",
    "brand": null,
    "latitude": -0.6760395,
    "longitude": 35.136985,
    "phone": null,
    "hours": null
  },
  {
    "name": "Total",
    "address": "B3, Sotik",
    "city": "Sotik",
    "county": "Bomet",
    "brand": "TotalEnergies",
    "latitude": -0.6866994,
    "longitude": 35.1153599,
    "phone": null,
    "hours": null
  },
  {
    "name": "Total Sotik Service Station",
    "address": "Total Sotik Service Station, Sotik",
    "city": "Sotik",
    "county": "Bomet",
    "brand": "TotalEnergies",
    "latitude": -0.6908182,
    "longitude": 35.11098,
    "phone": null,
    "hours": null
  },
  {
    "name": "Gulf Energy - Kanduyi",
    "address": "Eldoret Road, Bungoma",
    "city": "Bungoma",
    "county": "Bungoma",
    "brand": "Gulf",
    "latitude": 0.5926737,
    "longitude": 34.5598541,
    "phone": null,
    "hours": null
  },
  {
    "name": "Hass Petrol Station",
    "address": "Eldoret Road, Bungoma",
    "city": "Bungoma",
    "county": "Bungoma",
    "brand": "Hass Petroleum",
    "latitude": 0.5934336,
    "longitude": 34.5649658,
    "phone": null,
    "hours": null
  },
  {
    "name": "Mwireri Petrol Station",
    "address": "Mumias-Bungoma Road, Bungoma",
    "city": "Bungoma",
    "county": "Bungoma",
    "brand": null,
    "latitude": 0.5466172,
    "longitude": 34.5563082,
    "phone": null,
    "hours": null
  },
  {
    "name": "National Oil Petrol Station",
    "address": "Moi Avenue, Bungoma",
    "city": "Bungoma",
    "county": "Bungoma",
    "brand": "BP",
    "latitude": 0.5669552,
    "longitude": 34.5604778,
    "phone": null,
    "hours": null
  },
  {
    "name": "Rubis",
    "address": "Mumias-Bungoma Road, Bungoma",
    "city": "Bungoma",
    "county": "Bungoma",
    "brand": "Rubis",
    "latitude": 0.556212,
    "longitude": 34.5594025,
    "phone": null,
    "hours": null
  },
  {
    "name": "Rubis",
    "address": "Mumias-Bungoma Road, Bungoma",
    "city": "Bungoma",
    "county": "Bungoma",
    "brand": "Rubis",
    "latitude": 0.4594328,
    "longitude": 34.5206028,
    "phone": null,
    "hours": null
  },
  {
    "name": "Shell",
    "address": "Mumias-Bungoma Road, Bungoma",
    "city": "Bungoma",
    "county": "Bungoma",
    "brand": "Shell",
    "latitude": 0.5808279,
    "longitude": 34.5577339,
    "phone": null,
    "hours": null
  },
  {
    "name": "Shreeji Service Station - Kanduyi",
    "address": "Eldoret Road, Bungoma",
    "city": "Bungoma",
    "county": "Bungoma",
    "brand": null,
    "latitude": 0.5924703,
    "longitude": 34.5467512,
    "phone": null,
    "hours": null
  },
  {
    "name": "Total",
    "address": "Moi Avenue, Bungoma",
    "city": "Bungoma",
    "county": "Bungoma",
    "brand": "TotalEnergies",
    "latitude": 0.5612517,
    "longitude": 34.5607406,
    "phone": null,
    "hours": null
  },
  {
    "name": "Total Kanduyi Service Station",
    "address": "Eldoret Road, Bungoma",
    "city": "Bungoma",
    "county": "Bungoma",
    "brand": "TotalEnergies",
    "latitude": 0.5931526,
    "longitude": 34.5547405,
    "phone": null,
    "hours": null
  },
  {
    "name": "Western Energy",
    "address": "Mumias-Bungoma Road, Bungoma",
    "city": "Bungoma",
    "county": "Bungoma",
    "brand": null,
    "latitude": 0.5894407,
    "longitude": 34.553971,
    "phone": null,
    "hours": null
  },
  {
    "name": "Abib Gas",
    "address": "Webuye Road, Webuye",
    "city": "Webuye",
    "county": "Bungoma",
    "brand": null,
    "latitude": 0.6091249,
    "longitude": 34.7702454,
    "phone": null,
    "hours": null
  },
  {
    "name": "Manasseh Filling Station",
    "address": "Eldoret-Malaba Road, Webuye",
    "city": "Webuye",
    "county": "Bungoma",
    "brand": null,
    "latitude": 0.6073053,
    "longitude": 34.7534024,
    "phone": null,
    "hours": null
  },
  {
    "name": "Rubis",
    "address": "Eldoret Road, Webuye",
    "city": "Webuye",
    "county": "Bungoma",
    "brand": "Rubis",
    "latitude": 0.5890994,
    "longitude": 34.7813533,
    "phone": null,
    "hours": null
  },
  {
    "name": "Rubis",
    "address": "Eldoret Road, Webuye",
    "city": "Webuye",
    "county": "Bungoma",
    "brand": "Rubis",
    "latitude": 0.6003797,
    "longitude": 34.7660659,
    "phone": null,
    "hours": null
  },
  {
    "name": "Suez Energy Station",
    "address": "Stage Street Road, Webuye",
    "city": "Webuye",
    "county": "Bungoma",
    "brand": null,
    "latitude": 0.6052889,
    "longitude": 34.7711741,
    "phone": null,
    "hours": null
  },
  {
    "name": "Total Webuye",
    "address": "Eldoret-Malaba Road, Webuye",
    "city": "Webuye",
    "county": "Bungoma",
    "brand": "TotalEnergies",
    "latitude": 0.6063461,
    "longitude": 34.750549,
    "phone": null,
    "hours": null
  },
  {
    "name": "Webuye Corner Service Station",
    "address": "Eldoret-Malaba Road, Webuye",
    "city": "Webuye",
    "county": "Bungoma",
    "brand": "TotalEnergies",
    "latitude": 0.608689,
    "longitude": 34.7591586,
    "phone": null,
    "hours": "24/7"
  },
  {
    "name": "Agip Petrol",
    "address": "Kisumu-Busia Road, Busia",
    "city": "Busia",
    "county": "Busia",
    "brand": "Agip",
    "latitude": 0.4623728,
    "longitude": 34.1082993,
    "phone": null,
    "hours": null
  },
  {
    "name": "Bethsaida Petrol",
    "address": "Kisumu - Busia Road, Busia",
    "city": "Busia",
    "county": "Busia",
    "brand": null,
    "latitude": 0.4514664,
    "longitude": 34.1342431,
    "phone": null,
    "hours": null
  },
  {
    "name": "Magharibi Petrol Station",
    "address": "Kisumu-Busia Road, Busia",
    "city": "Busia",
    "county": "Busia",
    "brand": null,
    "latitude": 0.4635612,
    "longitude": 34.1034048,
    "phone": null,
    "hours": null
  },
  {
    "name": "Mwari filling station",
    "address": "Busia - Malaba Road, Busia",
    "city": "Busia",
    "county": "Busia",
    "brand": null,
    "latitude": 0.4586069,
    "longitude": 34.1427648,
    "phone": null,
    "hours": null
  },
  {
    "name": "Quickfill Busia",
    "address": "Kisumu-Busia Road, Busia",
    "city": "Busia",
    "county": "Busia",
    "brand": null,
    "latitude": 0.440225,
    "longitude": 34.148011,
    "phone": null,
    "hours": null
  },
  {
    "name": "ROADBLOCK FILLING STATION",
    "address": "Kisumu - Busia Road, Busia",
    "city": "Busia",
    "county": "Busia",
    "brand": null,
    "latitude": 0.4473164,
    "longitude": 34.1398713,
    "phone": null,
    "hours": null
  },
  {
    "name": "Rubis",
    "address": "Kisumu - Busia Road, Busia",
    "city": "Busia",
    "county": "Busia",
    "brand": "Rubis",
    "latitude": 0.448515,
    "longitude": 34.1381231,
    "phone": null,
    "hours": null
  },
  {
    "name": "Shreeji Service Station",
    "address": "Kisumu - Busia Road, Busia",
    "city": "Busia",
    "county": "Busia",
    "brand": null,
    "latitude": 0.4574971,
    "longitude": 34.1204899,
    "phone": null,
    "hours": null
  },
  {
    "name": "TROJAN FILLING STATION",
    "address": "Kisumu-Busia Road, Busia",
    "city": "Busia",
    "county": "Busia",
    "brand": null,
    "latitude": 0.4420232,
    "longitude": 34.147189,
    "phone": null,
    "hours": null
  },
  {
    "name": "Embu Ilade Oil",
    "address": "Embu-Nairobi Highway, Embu",
    "city": "Embu",
    "county": "Embu",
    "brand": null,
    "latitude": -0.5450553,
    "longitude": 37.4557466,
    "phone": null,
    "hours": null
  },
  {
    "name": "Kobil (LR)",
    "address": "Embu-Nairobi Highway, Embu",
    "city": "Embu",
    "county": "Embu",
    "brand": "Kenol Kobil",
    "latitude": -0.5338674,
    "longitude": 37.4507223,
    "phone": null,
    "hours": null
  },
  {
    "name": "OLA Energy",
    "address": "Embu - Siakago Road, Embu",
    "city": "Embu",
    "county": "Embu",
    "brand": "OLA Energy",
    "latitude": -0.5385091,
    "longitude": 37.4542443,
    "phone": null,
    "hours": null
  },
  {
    "name": "Rubis",
    "address": "Embu-Nairobi Highway, Embu",
    "city": "Embu",
    "county": "Embu",
    "brand": "Rubis",
    "latitude": -0.5211035,
    "longitude": 37.453669,
    "phone": null,
    "hours": null
  },
  {
    "name": "Rubis",
    "address": "Embu-Nairobi Highway, Embu",
    "city": "Embu",
    "county": "Embu",
    "brand": "Rubis",
    "latitude": -0.5393798,
    "longitude": 37.4516606,
    "phone": null,
    "hours": null
  },
  {
    "name": "Shell",
    "address": "Embu-Nairobi Highway, Embu",
    "city": "Embu",
    "county": "Embu",
    "brand": "Shell",
    "latitude": -0.5421579,
    "longitude": 37.4548751,
    "phone": null,
    "hours": null
  },
  {
    "name": "Shell",
    "address": "Embu - Siakago Road, Embu",
    "city": "Embu",
    "county": "Embu",
    "brand": "Shell",
    "latitude": -0.5368376,
    "longitude": 37.4522661,
    "phone": null,
    "hours": null
  },
  {
    "name": "Ainu-Shamsi Petroleum",
    "address": "Garissa-Dadaab Road, Garissa",
    "city": "Garissa",
    "county": "Garissa",
    "brand": null,
    "latitude": -0.435489,
    "longitude": 39.6622669,
    "phone": null,
    "hours": null
  },
  {
    "name": "Hass petrol station",
    "address": "Garissa-Daadab Road, Garissa",
    "city": "Garissa",
    "county": "Garissa",
    "brand": "Hass Petroleum",
    "latitude": -0.4626466,
    "longitude": 39.6393961,
    "phone": null,
    "hours": null
  },
  {
    "name": "Heller",
    "address": "Garissa-Dadaab Road, Garissa",
    "city": "Garissa",
    "county": "Garissa",
    "brand": null,
    "latitude": -0.4435002,
    "longitude": 39.6552558,
    "phone": null,
    "hours": null
  },
  {
    "name": "Link Petrol Station",
    "address": "Garissa-Dadaab Road, Garissa",
    "city": "Garissa",
    "county": "Garissa",
    "brand": null,
    "latitude": -0.4392336,
    "longitude": 39.6591145,
    "phone": null,
    "hours": null
  },
  {
    "name": "Link Petrol Station",
    "address": "Garissa-Dadaab Road, Garissa",
    "city": "Garissa",
    "county": "Garissa",
    "brand": null,
    "latitude": -0.4319772,
    "longitude": 39.665306,
    "phone": null,
    "hours": null
  },
  {
    "name": "Shell",
    "address": "Garissa-Daadab Road, Garissa",
    "city": "Garissa",
    "county": "Garissa",
    "brand": "Shell",
    "latitude": -0.4541605,
    "longitude": 39.6458236,
    "phone": null,
    "hours": null
  },
  {
    "name": "National Oil Corporation-HomaBay",
    "address": "Homa Bay, Homa Bay",
    "city": "Homa Bay",
    "county": "Homa Bay",
    "brand": "National Oil",
    "latitude": -0.5410515,
    "longitude": 34.4562416,
    "phone": null,
    "hours": null
  },
  {
    "name": "SIMIS ENERGY",
    "address": "Homa Bay, Homa Bay",
    "city": "Homa Bay",
    "county": "Homa Bay",
    "brand": null,
    "latitude": -0.5522955,
    "longitude": 34.4526786,
    "phone": null,
    "hours": null
  },
  {
    "name": "Total Homabay Service Station",
    "address": "Homa Bay, Homa Bay",
    "city": "Homa Bay",
    "county": "Homa Bay",
    "brand": "TotalEnergies",
    "latitude": -0.5372914,
    "longitude": 34.4567149,
    "phone": null,
    "hours": null
  },
  {
    "name": "Total Petrol Station",
    "address": "Homa Bay, Homa Bay",
    "city": "Homa Bay",
    "county": "Homa Bay",
    "brand": "TotalEnergies",
    "latitude": -0.534215,
    "longitude": 34.4563572,
    "phone": null,
    "hours": null
  },
  {
    "name": "Kendu Bay Filling Station",
    "address": "Kendu Bay Filling Station",
    "city": "Kendu Bay",
    "county": "Homa Bay",
    "brand": "TotalEnergies",
    "latitude": -0.3692304,
    "longitude": 34.6503505,
    "phone": null,
    "hours": "24/7"
  },
  {
    "name": "Coldori Petrol Station Mbita",
    "address": "Homa Bay-Mbita Road, Mbita",
    "city": "Mbita",
    "county": "Homa Bay",
    "brand": null,
    "latitude": -0.4339574,
    "longitude": 34.2099332,
    "phone": null,
    "hours": null
  },
  {
    "name": "Jamafuta Filling Station (Caltexy)",
    "address": "Homa Bay-Mbita Road, Mbita",
    "city": "Mbita",
    "county": "Homa Bay",
    "brand": null,
    "latitude": -0.422957,
    "longitude": 34.2087031,
    "phone": null,
    "hours": null
  },
  {
    "name": "Fairway Petro Station",
    "address": "A2, Isiolo",
    "city": "Isiolo",
    "county": "Isiolo",
    "brand": "Petro Oil",
    "latitude": 0.3634748,
    "longitude": 37.5865362,
    "phone": null,
    "hours": null
  },
  {
    "name": "Isiolo Service Station",
    "address": "Isiolo-Marsabit Road, Isiolo",
    "city": "Isiolo",
    "county": "Isiolo",
    "brand": "Shell",
    "latitude": 0.3519004,
    "longitude": 37.5828293,
    "phone": null,
    "hours": "07:00-22:00"
  },
  {
    "name": "OLA Energy",
    "address": "Isiolo-Marsabit Road, Isiolo",
    "city": "Isiolo",
    "county": "Isiolo",
    "brand": "OLA Energy",
    "latitude": 0.3319765,
    "longitude": 37.5757326,
    "phone": null,
    "hours": null
  },
  {
    "name": "Shell",
    "address": "Isiolo-Marsabit Road, Isiolo",
    "city": "Isiolo",
    "county": "Isiolo",
    "brand": "Shell",
    "latitude": 0.3371821,
    "longitude": 37.5789767,
    "phone": null,
    "hours": null
  },
  {
    "name": "Total",
    "address": "Isiolo-Marsabit Road, Isiolo",
    "city": "Isiolo",
    "county": "Isiolo",
    "brand": "TotalEnergies",
    "latitude": 0.3472166,
    "longitude": 37.5814772,
    "phone": null,
    "hours": null
  },
  {
    "name": "National Oil",
    "address": "Nairobi-Namanga Road, Kajiado",
    "city": "Kajiado",
    "county": "Kajiado",
    "brand": "National Oil",
    "latitude": -1.8420111,
    "longitude": 36.7903718,
    "phone": null,
    "hours": null
  },
  {
    "name": "Rubis",
    "address": "Nairobi-Namanga Road, Kajiado",
    "city": "Kajiado",
    "county": "Kajiado",
    "brand": "Rubis",
    "latitude": -1.8482341,
    "longitude": 36.7903076,
    "phone": null,
    "hours": null
  },
  {
    "name": "Rubis",
    "address": "Nairobi-Namanga Road, Kajiado",
    "city": "Kajiado",
    "county": "Kajiado",
    "brand": "Rubis",
    "latitude": -1.6166829,
    "longitude": 36.8951276,
    "phone": null,
    "hours": null
  },
  {
    "name": "Shell Petrol Station Kajiado",
    "address": "Nairobi-Namanga Road, Kajiado",
    "city": "Kajiado",
    "county": "Kajiado",
    "brand": "Shell",
    "latitude": -1.8357161,
    "longitude": 36.7996673,
    "phone": null,
    "hours": null
  },
  {
    "name": "Total Kajiado",
    "address": "Nairobi-Namanga Road, Kajiado",
    "city": "Kajiado",
    "county": "Kajiado",
    "brand": "TotalEnergies",
    "latitude": -1.8444481,
    "longitude": 36.7888024,
    "phone": null,
    "hours": null
  },
  {
    "name": "ILADE OIL FUEL STATION",
    "address": "Magadi Road, Kiserian",
    "city": "Kiserian",
    "county": "Kajiado",
    "brand": null,
    "latitude": -1.4006947,
    "longitude": 36.7227065,
    "phone": null,
    "hours": null
  },
  {
    "name": "New Kiserian Junction Gas Station",
    "address": "New Kiserian Junction Gas Station",
    "city": "Kiserian",
    "county": "Kajiado",
    "brand": null,
    "latitude": -1.4365805,
    "longitude": 36.685025,
    "phone": null,
    "hours": null
  },
  {
    "name": "Shell Petrol Station",
    "address": "Forest Line Road, Kiserian",
    "city": "Kiserian",
    "county": "Kajiado",
    "brand": "Shell",
    "latitude": -1.4168229,
    "longitude": 36.6869153,
    "phone": null,
    "hours": null
  },
  {
    "name": "Tik Koz Gas Point",
    "address": "Magadi Road, Kiserian",
    "city": "Kiserian",
    "county": "Kajiado",
    "brand": null,
    "latitude": -1.4130474,
    "longitude": 36.7111296,
    "phone": null,
    "hours": null
  },
  {
    "name": "Total",
    "address": "Magadi Road, Kiserian",
    "city": "Kiserian",
    "county": "Kajiado",
    "brand": "TotalEnergies",
    "latitude": -1.429989,
    "longitude": 36.6874615,
    "phone": null,
    "hours": null
  },
  {
    "name": "Total",
    "address": "Kiserian-Isinya Road, Kiserian",
    "city": "Kiserian",
    "county": "Kajiado",
    "brand": "TotalEnergies",
    "latitude": -1.4589085,
    "longitude": 36.7059792,
    "phone": null,
    "hours": null
  },
  {
    "name": "Twin City Petrol Station",
    "address": "Magadi Road, Kiserian",
    "city": "Kiserian",
    "county": "Kajiado",
    "brand": "Twin City",
    "latitude": -1.4315048,
    "longitude": 36.6863535,
    "phone": null,
    "hours": null
  },
  {
    "name": "Hashi",
    "address": "Namanga Road, Kitengela",
    "city": "Kitengela",
    "county": "Kajiado",
    "brand": "Hashi Energy",
    "latitude": -1.5796192,
    "longitude": 36.9260758,
    "phone": null,
    "hours": null
  },
  {
    "name": "Ilade Oil",
    "address": "Namanga Road, Kitengela",
    "city": "Kitengela",
    "county": "Kajiado",
    "brand": null,
    "latitude": -1.5443154,
    "longitude": 36.9403263,
    "phone": null,
    "hours": null
  },
  {
    "name": "Jp Energy",
    "address": "Namanga Road, Kitengela",
    "city": "Kitengela",
    "county": "Kajiado",
    "brand": null,
    "latitude": -1.5765441,
    "longitude": 36.9284031,
    "phone": null,
    "hours": null
  },
  {
    "name": "Tosha",
    "address": "Namanga Road, Kitengela",
    "city": "Kitengela",
    "county": "Kajiado",
    "brand": "Tosha Petroleum",
    "latitude": -1.4697661,
    "longitude": 36.9607116,
    "phone": null,
    "hours": null
  },
  {
    "name": "Total Energies Yukos",
    "address": "Namanga Road, Kitengela",
    "city": "Kitengela",
    "county": "Kajiado",
    "brand": "TotalEnergies",
    "latitude": -1.5072789,
    "longitude": 36.9535106,
    "phone": null,
    "hours": null
  },
  {
    "name": "OLA Kitengela Acacia",
    "address": "Namanga Road, Kitengela ward",
    "city": "Kitengela ward",
    "county": "Kajiado",
    "brand": "OLA Energy",
    "latitude": -1.5249415,
    "longitude": 36.9449386,
    "phone": null,
    "hours": null
  },
  {
    "name": "Style Filling Station",
    "address": "Forest Line Road, Matasia",
    "city": "Matasia",
    "county": "Kajiado",
    "brand": null,
    "latitude": -1.3915206,
    "longitude": 36.6821969,
    "phone": null,
    "hours": null
  },
  {
    "name": "Eagol",
    "address": "Athi River Road, Namanga",
    "city": "Namanga",
    "county": "Kajiado",
    "brand": null,
    "latitude": -2.5397926,
    "longitude": 36.7953271,
    "phone": null,
    "hours": null
  },
  {
    "name": "Gulf Energy Namanga",
    "address": "Athi River Road, Namanga",
    "city": "Namanga",
    "county": "Kajiado",
    "brand": "Gulf",
    "latitude": -2.5396379,
    "longitude": 36.797242,
    "phone": null,
    "hours": null
  },
  {
    "name": "Kenol Kobil Namanga",
    "address": "Athi River-Namanga Road, Namanga",
    "city": "Namanga",
    "county": "Kajiado",
    "brand": "Kenol Kobil",
    "latitude": -2.5375968,
    "longitude": 36.8052682,
    "phone": null,
    "hours": null
  },
  {
    "name": "Shell",
    "address": "Athi River Road, Namanga",
    "city": "Namanga",
    "county": "Kajiado",
    "brand": "Shell",
    "latitude": -2.538144,
    "longitude": 36.8009605,
    "phone": null,
    "hours": null
  },
  {
    "name": "Total Namanga Station",
    "address": "Athi River-Namanga Road, Namanga",
    "city": "Namanga",
    "county": "Kajiado",
    "brand": "TotalEnergies",
    "latitude": -2.5115141,
    "longitude": 36.8414194,
    "phone": null,
    "hours": null
  },
  {
    "name": "Delta Service Station- Ngong Town",
    "address": "Ngong Road, Ngong",
    "city": "Ngong",
    "county": "Kajiado",
    "brand": "Delta",
    "latitude": -1.3532338,
    "longitude": 36.6577858,
    "phone": null,
    "hours": null
  },
  {
    "name": "Gas & Co.",
    "address": "Forest Line -Ngong Road, Ngong",
    "city": "Ngong",
    "county": "Kajiado",
    "brand": null,
    "latitude": -1.3630439,
    "longitude": 36.6564754,
    "phone": null,
    "hours": null
  },
  {
    "name": "Gulf Energy - Ngong Bubul",
    "address": "Ngong Road, Ngong",
    "city": "Ngong",
    "county": "Kajiado",
    "brand": "Gulf",
    "latitude": -1.3341443,
    "longitude": 36.6729351,
    "phone": null,
    "hours": null
  },
  {
    "name": "Ilade Oil Service Station",
    "address": "Ngong Road, Ngong",
    "city": "Ngong",
    "county": "Kajiado",
    "brand": null,
    "latitude": -1.3611884,
    "longitude": 36.6560384,
    "phone": null,
    "hours": null
  },
  {
    "name": "Juanco Petrol Station",
    "address": "Ngong Road, Ngong",
    "city": "Ngong",
    "county": "Kajiado",
    "brand": null,
    "latitude": -1.343276,
    "longitude": 36.665983,
    "phone": null,
    "hours": null
  },
  {
    "name": "National Oil Petrol Station",
    "address": "Ngong Road, Ngong",
    "city": "Ngong",
    "county": "Kajiado",
    "brand": "National Oil",
    "latitude": -1.3414,
    "longitude": 36.6669454,
    "phone": null,
    "hours": null
  },
  {
    "name": "Shell",
    "address": "Ngong Road, Ngong",
    "city": "Ngong",
    "county": "Kajiado",
    "brand": "Shell",
    "latitude": -1.3477607,
    "longitude": 36.6628151,
    "phone": null,
    "hours": null
  },
  {
    "name": "Total shaz Energy",
    "address": "Ngong Road, Ngong",
    "city": "Ngong",
    "county": "Kajiado",
    "brand": "TotalEnergies",
    "latitude": -1.3587986,
    "longitude": 36.6561747,
    "phone": null,
    "hours": null
  },
  {
    "name": "Shanle Petrol Station",
    "address": "Magadi Road, Ongata Rongai",
    "city": "Ongata Rongai",
    "county": "Kajiado",
    "brand": null,
    "latitude": -1.3976802,
    "longitude": 36.7574094,
    "phone": null,
    "hours": null
  },
  {
    "name": "Shell",
    "address": "Magadi Road, Ongata Rongai",
    "city": "Ongata Rongai",
    "county": "Kajiado",
    "brand": "Shell",
    "latitude": -1.3968516,
    "longitude": 36.7551992,
    "phone": null,
    "hours": null
  },
  {
    "name": "Trojan Petrol Station",
    "address": "Magadi Road, Ongata Rongai",
    "city": "Ongata Rongai",
    "county": "Kajiado",
    "brand": null,
    "latitude": -1.3972062,
    "longitude": 36.7598174,
    "phone": null,
    "hours": null
  },
  {
    "name": "Bakri Petrol Station",
    "address": "Magadi Road, Rongai",
    "city": "Rongai",
    "county": "Kajiado",
    "brand": null,
    "latitude": -1.3965588,
    "longitude": 36.7433286,
    "phone": null,
    "hours": null
  },
  {
    "name": "Hashi Energy Petrol Station",
    "address": "Magadi Road, Rongai",
    "city": "Rongai",
    "county": "Kajiado",
    "brand": "Hashi Energy",
    "latitude": -1.3896686,
    "longitude": 36.7673373,
    "phone": null,
    "hours": null
  },
  {
    "name": "Meru Petro Station",
    "address": "Magadi Road, Rongai",
    "city": "Rongai",
    "county": "Kajiado",
    "brand": "Petro Oil",
    "latitude": -1.3949742,
    "longitude": 36.7637486,
    "phone": null,
    "hours": "24/7"
  },
  {
    "name": "Rubis",
    "address": "Magadi Road, Rongai",
    "city": "Rongai",
    "county": "Kajiado",
    "brand": "Rubis",
    "latitude": -1.3962761,
    "longitude": 36.7622509,
    "phone": null,
    "hours": "24/7"
  },
  {
    "name": "Salgaa Petrol Station",
    "address": "Nairobi Road, Rongai",
    "city": "Rongai",
    "county": "Kajiado",
    "brand": null,
    "latitude": -0.2072667,
    "longitude": 35.851083,
    "phone": null,
    "hours": null
  },
  {
    "name": "Total Ongata Rongai Service Station",
    "address": "Magadi Road, Rongai",
    "city": "Rongai",
    "county": "Kajiado",
    "brand": "TotalEnergies",
    "latitude": -1.3961669,
    "longitude": 36.7377679,
    "phone": null,
    "hours": null
  },
  {
    "name": "Shell Mumias Road",
    "address": "Mumias South Road, Buruburu",
    "city": "Buruburu",
    "county": "Kakamega",
    "brand": "Shell",
    "latitude": -1.2864047,
    "longitude": 36.8806596,
    "phone": "+254 721 243317",
    "hours": null
  },
  {
    "name": "Fralet Petro Station",
    "address": "Kakamega-Webuye Highway, Kakamega",
    "city": "Kakamega",
    "county": "Kakamega",
    "brand": "Petro Oil",
    "latitude": 0.2983692,
    "longitude": 34.7682094,
    "phone": null,
    "hours": null
  },
  {
    "name": "Gulf Energy",
    "address": "Kisumu-Kakamega Road, Kakamega",
    "city": "Kakamega",
    "county": "Kakamega",
    "brand": "Gulf",
    "latitude": 0.2728108,
    "longitude": 34.7529274,
    "phone": null,
    "hours": null
  },
  {
    "name": "Julika Petrol Station",
    "address": "Kisumu-Kakamega Road, Kakamega",
    "city": "Kakamega",
    "county": "Kakamega",
    "brand": null,
    "latitude": 0.2872368,
    "longitude": 34.7560896,
    "phone": null,
    "hours": null
  },
  {
    "name": "Ola",
    "address": "Kakamega-Mumias Road, Kakamega",
    "city": "Kakamega",
    "county": "Kakamega",
    "brand": "OLA Energy",
    "latitude": 0.2812369,
    "longitude": 34.7455137,
    "phone": null,
    "hours": null
  },
  {
    "name": "OLA Energy",
    "address": "Kakamega-Mumias Road, Kakamega",
    "city": "Kakamega",
    "county": "Kakamega",
    "brand": "OLA Energy",
    "latitude": 0.2823219,
    "longitude": 34.7491878,
    "phone": null,
    "hours": null
  },
  {
    "name": "OLA Energy",
    "address": "Eldoret-Kitale Road, Kakamega",
    "city": "Kakamega",
    "county": "Kakamega",
    "brand": "OLA Energy",
    "latitude": 0.8400593,
    "longitude": 35.1213811,
    "phone": null,
    "hours": null
  },
  {
    "name": "Rasmi",
    "address": "Kisumu-Kakamega Road, Kakamega",
    "city": "Kakamega",
    "county": "Kakamega",
    "brand": null,
    "latitude": 0.2645849,
    "longitude": 34.7524455,
    "phone": null,
    "hours": null
  },
  {
    "name": "Rubis",
    "address": "Canon Awori Street, Kakamega",
    "city": "Kakamega",
    "county": "Kakamega",
    "brand": "Rubis",
    "latitude": 0.2858237,
    "longitude": 34.7546489,
    "phone": null,
    "hours": null
  },
  {
    "name": "Sigalagala Petrol",
    "address": "Kakamega Road, Kakamega",
    "city": "Kakamega",
    "county": "Kakamega",
    "brand": null,
    "latitude": 0.1919529,
    "longitude": 34.7622895,
    "phone": null,
    "hours": null
  },
  {
    "name": "Total",
    "address": "Kakamega-Webuye Highway, Kakamega",
    "city": "Kakamega",
    "county": "Kakamega",
    "brand": "TotalEnergies",
    "latitude": 0.3198836,
    "longitude": 34.7853166,
    "phone": null,
    "hours": null
  },
  {
    "name": "TotalEnergies Kakamega",
    "address": "Kisumu-Kakamega Road, Kakamega",
    "city": "Kakamega",
    "county": "Kakamega",
    "brand": "TotalEnergies",
    "latitude": 0.2780692,
    "longitude": 34.7531204,
    "phone": null,
    "hours": null
  },
  {
    "name": "Garissa Filling Station",
    "address": "Kakamega-Mumias Road, Mumias",
    "city": "Mumias",
    "county": "Kakamega",
    "brand": null,
    "latitude": 0.325195,
    "longitude": 34.5038294,
    "phone": null,
    "hours": null
  },
  {
    "name": "Hass Service Station - Mumias",
    "address": "Mumias-Bungoma Road, Mumias",
    "city": "Mumias",
    "county": "Kakamega",
    "brand": "Hass Petroleum",
    "latitude": 0.3357696,
    "longitude": 34.489482,
    "phone": null,
    "hours": "24/7"
  },
  {
    "name": "Total Mumias Service Station",
    "address": "Mumias-Bungoma Road, Mumias",
    "city": "Mumias",
    "county": "Kakamega",
    "brand": "TotalEnergies",
    "latitude": 0.3476703,
    "longitude": 34.4904617,
    "phone": null,
    "hours": null
  },
  {
    "name": "Total Petrol Station",
    "address": "Mumias-Bungoma Road, Mumias",
    "city": "Mumias",
    "county": "Kakamega",
    "brand": "TotalEnergies",
    "latitude": 0.3336343,
    "longitude": 34.4888978,
    "phone": null,
    "hours": null
  },
  {
    "name": "Chepilat Petrol Station",
    "address": "B3, Kericho",
    "city": "Kericho",
    "county": "Kericho",
    "brand": null,
    "latitude": -0.6928537,
    "longitude": 35.0723116,
    "phone": null,
    "hours": null
  },
  {
    "name": "National Petrol Station",
    "address": "C23, Kericho",
    "city": "Kericho",
    "county": "Kericho",
    "brand": null,
    "latitude": -0.6762541,
    "longitude": 35.1392223,
    "phone": null,
    "hours": null
  },
  {
    "name": "Shell",
    "address": "Kericho-Kisumu Highway, Kericho",
    "city": "Kericho",
    "county": "Kericho",
    "brand": "Shell",
    "latitude": -0.3635664,
    "longitude": 35.2934136,
    "phone": null,
    "hours": null
  },
  {
    "name": "Total",
    "address": "John Kerich Road, Kericho",
    "city": "Kericho",
    "county": "Kericho",
    "brand": "TotalEnergies",
    "latitude": -0.3680032,
    "longitude": 35.2850887,
    "phone": null,
    "hours": null
  },
  {
    "name": "Hass petrol station",
    "address": "Kericho-Kisumu Highway, KERICHO",
    "city": "KERICHO",
    "county": "Kericho",
    "brand": "Hass Petroleum",
    "latitude": -0.3733642,
    "longitude": 35.2810096,
    "phone": null,
    "hours": null
  },
  {
    "name": "Total",
    "address": "Kericho-Kisumu Highway, KERICHO",
    "city": "KERICHO",
    "county": "Kericho",
    "brand": "TotalEnergies",
    "latitude": -0.3720373,
    "longitude": 35.2824137,
    "phone": null,
    "hours": null
  },
  {
    "name": "Kenol Petrol Station",
    "address": "Githunguri-Githiga Road, Githunguri",
    "city": "Githunguri",
    "county": "Kiambu",
    "brand": "Kenol Kobil",
    "latitude": -1.0928074,
    "longitude": 36.7333139,
    "phone": null,
    "hours": null
  },
  {
    "name": "National Oil",
    "address": "Utawala Githunguri Road, Githunguri",
    "city": "Githunguri",
    "county": "Kiambu",
    "brand": "National Oil",
    "latitude": -1.2823965,
    "longitude": 36.9923469,
    "phone": null,
    "hours": null
  },
  {
    "name": "Penko Petro Station",
    "address": "Kiambu Road, Githunguri",
    "city": "Githunguri",
    "county": "Kiambu",
    "brand": "Petro Oil",
    "latitude": -1.0591805,
    "longitude": 36.7827088,
    "phone": null,
    "hours": null
  },
  {
    "name": "Petrocam",
    "address": "Kiambu Road, Githunguri",
    "city": "Githunguri",
    "county": "Kiambu",
    "brand": "Petro Oil",
    "latitude": -1.0604509,
    "longitude": 36.7708595,
    "phone": null,
    "hours": null
  },
  {
    "name": "Total",
    "address": "Kiambu Road, Githunguri",
    "city": "Githunguri",
    "county": "Kiambu",
    "brand": "TotalEnergies",
    "latitude": -1.0569382,
    "longitude": 36.7776104,
    "phone": null,
    "hours": null
  },
  {
    "name": "Kareme Petrol Station",
    "address": "Thika Road, Juja",
    "city": "Juja",
    "county": "Kiambu",
    "brand": null,
    "latitude": -1.1016549,
    "longitude": 37.0207289,
    "phone": null,
    "hours": null
  },
  {
    "name": "Lexo",
    "address": "Thika Road, Juja",
    "city": "Juja",
    "county": "Kiambu",
    "brand": "Lexo",
    "latitude": -1.0941108,
    "longitude": 37.0307117,
    "phone": null,
    "hours": null
  },
  {
    "name": "North Gate Station",
    "address": "Thika Road, Juja",
    "city": "Juja",
    "county": "Kiambu",
    "brand": null,
    "latitude": -1.1062392,
    "longitude": 37.0155453,
    "phone": null,
    "hours": null
  },
  {
    "name": "OLA Energy",
    "address": "Thika Road, Juja",
    "city": "Juja",
    "county": "Kiambu",
    "brand": "OLA Energy",
    "latitude": -1.1152156,
    "longitude": 37.010699,
    "phone": null,
    "hours": null
  },
  {
    "name": "Rubis",
    "address": "Thika Road, Juja",
    "city": "Juja",
    "county": "Kiambu",
    "brand": "Rubis",
    "latitude": -1.099639,
    "longitude": 37.022877,
    "phone": null,
    "hours": null
  },
  {
    "name": "Total",
    "address": "Thika Road, Juja",
    "city": "Juja",
    "county": "Kiambu",
    "brand": "TotalEnergies",
    "latitude": -1.119084,
    "longitude": 37.0088748,
    "phone": null,
    "hours": null
  },
  {
    "name": "Bakri Petrol Station",
    "address": "Nairobi-Nakuru Road, Kiambu",
    "city": "Kiambu",
    "county": "Kiambu",
    "brand": null,
    "latitude": -1.1134744,
    "longitude": 36.6310921,
    "phone": null,
    "hours": null
  },
  {
    "name": "Delta Filling Station",
    "address": "Kiambu Road, Kiambu",
    "city": "Kiambu",
    "county": "Kiambu",
    "brand": "Delta",
    "latitude": -1.199694,
    "longitude": 36.8356581,
    "phone": null,
    "hours": null
  },
  {
    "name": "Delta Filling Station",
    "address": "Gitaru Road, Kiambu",
    "city": "Kiambu",
    "county": "Kiambu",
    "brand": "Delta",
    "latitude": -1.2030606,
    "longitude": 36.723177,
    "phone": null,
    "hours": null
  },
  {
    "name": "G.N.T Filling Station",
    "address": "Gatundu-Kinare Road, Kiambu",
    "city": "Kiambu",
    "county": "Kiambu",
    "brand": null,
    "latitude": -1.0122768,
    "longitude": 36.904906,
    "phone": null,
    "hours": null
  },
  {
    "name": "Lina Oil",
    "address": "Kiambu Road, Kiambu",
    "city": "Kiambu",
    "county": "Kiambu",
    "brand": null,
    "latitude": -1.1076086,
    "longitude": 36.6395041,
    "phone": null,
    "hours": null
  },
  {
    "name": "Mo Gas",
    "address": "Biashara Street Kiambu, Kiambu",
    "city": "Kiambu",
    "county": "Kiambu",
    "brand": "Jimmy",
    "latitude": -1.1724642,
    "longitude": 36.8301847,
    "phone": null,
    "hours": null
  },
  {
    "name": "National Oil",
    "address": "Banana Raini Road, Kiambu",
    "city": "Kiambu",
    "county": "Kiambu",
    "brand": "National Oil",
    "latitude": -1.1916923,
    "longitude": 36.7757253,
    "phone": null,
    "hours": null
  },
  {
    "name": "OLA Energy",
    "address": "Biashara Street Kiambu, Kiambu",
    "city": "Kiambu",
    "county": "Kiambu",
    "brand": "Wairimu",
    "latitude": -1.169348,
    "longitude": 36.8270875,
    "phone": null,
    "hours": null
  },
  {
    "name": "Petrol Max",
    "address": "Thika-Mangu Flyover Road, Kiambu",
    "city": "Kiambu",
    "county": "Kiambu",
    "brand": "Petro Oil",
    "latitude": -0.8461473,
    "longitude": 36.6193048,
    "phone": null,
    "hours": null
  },
  {
    "name": "Quickfill Service station",
    "address": "Kiambu Road, Kiambu",
    "city": "Kiambu",
    "county": "Kiambu",
    "brand": null,
    "latitude": -1.1633227,
    "longitude": 36.8224858,
    "phone": null,
    "hours": null
  },
  {
    "name": "Shell",
    "address": "Kiambu Road, Kiambu",
    "city": "Kiambu",
    "county": "Kiambu",
    "brand": "Shell",
    "latitude": -1.1088795,
    "longitude": 36.6419763,
    "phone": null,
    "hours": null
  },
  {
    "name": "Shell",
    "address": "Gatundu-Kinare Road, Kiambu",
    "city": "Kiambu",
    "county": "Kiambu",
    "brand": "Shell",
    "latitude": -1.0119129,
    "longitude": 36.9030249,
    "phone": null,
    "hours": null
  },
  {
    "name": "Shell",
    "address": "Biashara Street Kiambu, Kiambu",
    "city": "Kiambu",
    "county": "Kiambu",
    "brand": "Shell",
    "latitude": -1.1713988,
    "longitude": 36.8283085,
    "phone": null,
    "hours": null
  },
  {
    "name": "Shell",
    "address": "Limuru Road, Kiambu",
    "city": "Kiambu",
    "county": "Kiambu",
    "brand": "Shell",
    "latitude": -1.1959348,
    "longitude": 36.7518868,
    "phone": null,
    "hours": null
  },
  {
    "name": "Simco Filling Station",
    "address": "Kiambu Road, Kiambu",
    "city": "Kiambu",
    "county": "Kiambu",
    "brand": null,
    "latitude": -1.2050034,
    "longitude": 36.8326916,
    "phone": null,
    "hours": null
  },
  {
    "name": "Total",
    "address": "Mutarakwa-Limuru Road, Kiambu",
    "city": "Kiambu",
    "county": "Kiambu",
    "brand": "TotalEnergies",
    "latitude": -1.109494,
    "longitude": 36.6287252,
    "phone": null,
    "hours": null
  },
  {
    "name": "Total Fourways",
    "address": "Kiambu Road, Kiambu",
    "city": "Kiambu",
    "county": "Kiambu",
    "brand": "TotalEnergies",
    "latitude": -1.2126466,
    "longitude": 36.8343887,
    "phone": null,
    "hours": null
  },
  {
    "name": "Trojan Petrol Station",
    "address": "Thika-Mang'u Road, Kiambu",
    "city": "Kiambu",
    "county": "Kiambu",
    "brand": null,
    "latitude": -1.0444687,
    "longitude": 37.059706,
    "phone": null,
    "hours": null
  },
  {
    "name": "Total",
    "address": "Kiambu Road, KIAMBU",
    "city": "KIAMBU",
    "county": "Kiambu",
    "brand": "TotalEnergies",
    "latitude": -1.1893155,
    "longitude": 36.8398301,
    "phone": null,
    "hours": null
  },
  {
    "name": "Amana Petroleum",
    "address": "Waiyaki Way, Kikuyu",
    "city": "Kikuyu",
    "county": "Kiambu",
    "brand": null,
    "latitude": -1.2594198,
    "longitude": 36.7045464,
    "phone": null,
    "hours": null
  },
  {
    "name": "Lexo Energy",
    "address": "Southern Bypass, Kikuyu",
    "city": "Kikuyu",
    "county": "Kiambu",
    "brand": "Lexo",
    "latitude": -1.2395885,
    "longitude": 36.6662894,
    "phone": null,
    "hours": null
  },
  {
    "name": "New Regen Filling Station",
    "address": "A104, Kikuyu",
    "city": "Kikuyu",
    "county": "Kiambu",
    "brand": null,
    "latitude": -1.2469506,
    "longitude": 36.6802899,
    "phone": null,
    "hours": null
  },
  {
    "name": "Shell",
    "address": "Shell, Kikuyu",
    "city": "Kikuyu",
    "county": "Kiambu",
    "brand": "Shell",
    "latitude": -1.245784,
    "longitude": 36.6627969,
    "phone": null,
    "hours": null
  },
  {
    "name": "Shell",
    "address": "Waiyaki Way, Kikuyu",
    "city": "Kikuyu",
    "county": "Kiambu",
    "brand": "Shell",
    "latitude": -1.2605912,
    "longitude": 36.7101643,
    "phone": null,
    "hours": null
  },
  {
    "name": "Total",
    "address": "A104, Kikuyu",
    "city": "Kikuyu",
    "county": "Kiambu",
    "brand": "TotalEnergies",
    "latitude": -1.2574573,
    "longitude": 36.7006715,
    "phone": null,
    "hours": null
  },
  {
    "name": "Ocean Oil Petrol",
    "address": "Manguo Road, limuru",
    "city": "limuru",
    "county": "Kiambu",
    "brand": null,
    "latitude": -1.1046294,
    "longitude": 36.6392056,
    "phone": null,
    "hours": null
  },
  {
    "name": "Schobble",
    "address": "Kiambu Road, limuru",
    "city": "limuru",
    "county": "Kiambu",
    "brand": null,
    "latitude": -1.1062167,
    "longitude": 36.6378471,
    "phone": null,
    "hours": null
  },
  {
    "name": "Lexus Petroleum",
    "address": "Kamandura-Maai Mahiu-Narok Road, Limuru",
    "city": "Limuru",
    "county": "Kiambu",
    "brand": null,
    "latitude": -1.1189485,
    "longitude": 36.6205576,
    "phone": null,
    "hours": null
  },
  {
    "name": "National Oil Corporation-Tigoni",
    "address": "Limuru Road, Limuru",
    "city": "Limuru",
    "county": "Kiambu",
    "brand": "National Oil",
    "latitude": -1.1267533,
    "longitude": 36.6725837,
    "phone": null,
    "hours": null
  },
  {
    "name": "Petrol Station",
    "address": "Dagoretti Road, Limuru",
    "city": "Limuru",
    "county": "Kiambu",
    "brand": "Petro Oil",
    "latitude": -1.1572066,
    "longitude": 36.5948357,
    "phone": null,
    "hours": null
  },
  {
    "name": "Rubis",
    "address": "Eldoret-Malaba Road, Limuru",
    "city": "Limuru",
    "county": "Kiambu",
    "brand": "Rubis",
    "latitude": -1.1394318,
    "longitude": 36.6368398,
    "phone": null,
    "hours": null
  },
  {
    "name": "Rubis",
    "address": "Kabuku-Tigoni Road, Limuru",
    "city": "Limuru",
    "county": "Kiambu",
    "brand": "Rubis",
    "latitude": -1.1191993,
    "longitude": 36.6430106,
    "phone": null,
    "hours": null
  },
  {
    "name": "Rubis Petrol Station",
    "address": "Limuru Road, Limuru",
    "city": "Limuru",
    "county": "Kiambu",
    "brand": "Rubis",
    "latitude": -1.1247475,
    "longitude": 36.676917,
    "phone": null,
    "hours": null
  },
  {
    "name": "Rubis Service Station - Limuru",
    "address": "Rubis Service Station - Limuru, Limuru",
    "city": "Limuru",
    "county": "Kiambu",
    "brand": "Rubis",
    "latitude": -1.073136,
    "longitude": 36.627456,
    "phone": null,
    "hours": null
  },
  {
    "name": "Delta Petrol Station",
    "address": "Limuru Road, Ruaka",
    "city": "Ruaka",
    "county": "Kiambu",
    "brand": "Delta",
    "latitude": -1.2091559,
    "longitude": 36.7881007,
    "phone": null,
    "hours": null
  },
  {
    "name": "Total",
    "address": "Limuru Road, Ruaka",
    "city": "Ruaka",
    "county": "Kiambu",
    "brand": "TotalEnergies",
    "latitude": -1.2009814,
    "longitude": 36.7610795,
    "phone": null,
    "hours": null
  },
  {
    "name": "Total",
    "address": "Limuru Road, Ruaka",
    "city": "Ruaka",
    "county": "Kiambu",
    "brand": "TotalEnergies",
    "latitude": -1.2106522,
    "longitude": 36.7895376,
    "phone": null,
    "hours": null
  },
  {
    "name": "ASTROL",
    "address": "Thika Road, Ruiru",
    "city": "Ruiru",
    "county": "Kiambu",
    "brand": "Astrol",
    "latitude": -1.1428564,
    "longitude": 36.9660438,
    "phone": null,
    "hours": null
  },
  {
    "name": "Moonstar Filling Point",
    "address": "Kamiti Road, Ruiru",
    "city": "Ruiru",
    "county": "Kiambu",
    "brand": null,
    "latitude": -1.1518628,
    "longitude": 36.9279788,
    "phone": null,
    "hours": null
  },
  {
    "name": "National oil",
    "address": "Thika Road, Ruiru",
    "city": "Ruiru",
    "county": "Kiambu",
    "brand": "National Oil",
    "latitude": -1.133336,
    "longitude": 36.9727509,
    "phone": null,
    "hours": null
  },
  {
    "name": "OLA energy",
    "address": "Ruiru Kamiti Road, Ruiru",
    "city": "Ruiru",
    "county": "Kiambu",
    "brand": "OLA Energy",
    "latitude": -1.1487528,
    "longitude": 36.9602498,
    "phone": null,
    "hours": null
  },
  {
    "name": "OLA Energy",
    "address": "Thika Road, Ruiru",
    "city": "Ruiru",
    "county": "Kiambu",
    "brand": "OLA Energy",
    "latitude": -1.1381686,
    "longitude": 36.9704929,
    "phone": null,
    "hours": null
  },
  {
    "name": "Pizza Inn Delta",
    "address": "Eastern Bypass, Ruiru",
    "city": "Ruiru",
    "county": "Kiambu",
    "brand": "Delta",
    "latitude": -1.1665724,
    "longitude": 36.961435,
    "phone": null,
    "hours": null
  },
  {
    "name": "Regnol Ruiru Toll Petrol Station",
    "address": "Thika Road, Ruiru",
    "city": "Ruiru",
    "county": "Kiambu",
    "brand": null,
    "latitude": -1.1295692,
    "longitude": 36.9846301,
    "phone": null,
    "hours": null
  },
  {
    "name": "Rubis",
    "address": "Thika Road, Ruiru",
    "city": "Ruiru",
    "county": "Kiambu",
    "brand": "Rubis",
    "latitude": -1.1312042,
    "longitude": 36.981665,
    "phone": null,
    "hours": null
  },
  {
    "name": "Rubis",
    "address": "Kamiti Road, Ruiru",
    "city": "Ruiru",
    "county": "Kiambu",
    "brand": "Rubis",
    "latitude": -1.1507946,
    "longitude": 36.9350168,
    "phone": null,
    "hours": null
  },
  {
    "name": "Shell - Eastern By-pass - Ruiru",
    "address": "Eastern Bypass, Ruiru",
    "city": "Ruiru",
    "county": "Kiambu",
    "brand": "Shell",
    "latitude": -1.1669756,
    "longitude": 36.9648792,
    "phone": null,
    "hours": null
  },
  {
    "name": "Shell - Ruiru",
    "address": "Ruiru Road, Ruiru",
    "city": "Ruiru",
    "county": "Kiambu",
    "brand": "Shell",
    "latitude": -1.1490993,
    "longitude": 36.9584826,
    "phone": null,
    "hours": null
  },
  {
    "name": "Shell New Thika Rd, Ruiru",
    "address": "Thika Road, Ruiru",
    "city": "Ruiru",
    "county": "Kiambu",
    "brand": "Shell",
    "latitude": -1.160387,
    "longitude": 36.958055,
    "phone": null,
    "hours": null
  },
  {
    "name": "Wesco",
    "address": "Eastern Bypass, Ruiru",
    "city": "Ruiru",
    "county": "Kiambu",
    "brand": "Engen",
    "latitude": -1.1738047,
    "longitude": 36.9773654,
    "phone": null,
    "hours": null
  },
  {
    "name": "Astrol Petrol station",
    "address": "Garissa Road, Thika",
    "city": "Thika",
    "county": "Kiambu",
    "brand": "Astrol",
    "latitude": -1.0501535,
    "longitude": 37.0815892,
    "phone": null,
    "hours": null
  },
  {
    "name": "Delta Petrol Station",
    "address": "Garissa Road, Thika",
    "city": "Thika",
    "county": "Kiambu",
    "brand": "Delta",
    "latitude": -1.0524454,
    "longitude": 37.1001895,
    "phone": null,
    "hours": null
  },
  {
    "name": "Engen",
    "address": "Garissa Road, Thika",
    "city": "Thika",
    "county": "Kiambu",
    "brand": "Engen",
    "latitude": -1.0509909,
    "longitude": 37.0949418,
    "phone": null,
    "hours": null
  },
  {
    "name": "Flash",
    "address": "Garissa Road, Thika",
    "city": "Thika",
    "county": "Kiambu",
    "brand": null,
    "latitude": -1.0610838,
    "longitude": 37.1533344,
    "phone": null,
    "hours": null
  },
  {
    "name": "Hashi petrol station",
    "address": "Garissa Road, Thika",
    "city": "Thika",
    "county": "Kiambu",
    "brand": "Hashi Energy",
    "latitude": -1.0610791,
    "longitude": 37.1725667,
    "phone": null,
    "hours": null
  },
  {
    "name": "Lexo Oil Petrol Station",
    "address": "Garissa Road, Thika",
    "city": "Thika",
    "county": "Kiambu",
    "brand": "Lexo",
    "latitude": -1.0579085,
    "longitude": 37.1165917,
    "phone": null,
    "hours": null
  },
  {
    "name": "National Oil Corporation-Thika Bidco",
    "address": "General Kago Road, Thika",
    "city": "Thika",
    "county": "Kiambu",
    "brand": "National Oil",
    "latitude": -1.0516718,
    "longitude": 37.0833102,
    "phone": null,
    "hours": null
  },
  {
    "name": "National Oil Corporation-Thika Makongeni",
    "address": "Garissa Road, Thika",
    "city": "Thika",
    "county": "Kiambu",
    "brand": "National Oil",
    "latitude": -1.0558918,
    "longitude": 37.1117547,
    "phone": null,
    "hours": null
  },
  {
    "name": "OLA Energy",
    "address": "Kenyatta Highway, Thika",
    "city": "Thika",
    "county": "Kiambu",
    "brand": "OLA Energy",
    "latitude": -1.0383955,
    "longitude": 37.0778517,
    "phone": null,
    "hours": null
  },
  {
    "name": "Petrol Station Ngoingwa",
    "address": "Thika-Mang'u Road, Thika",
    "city": "Thika",
    "county": "Kiambu",
    "brand": "Petro Oil",
    "latitude": -1.040065,
    "longitude": 37.0429714,
    "phone": null,
    "hours": null
  },
  {
    "name": "Shell",
    "address": "Meru-Nairobi Highway, Thika",
    "city": "Thika",
    "county": "Kiambu",
    "brand": "Shell",
    "latitude": -0.9774749,
    "longitude": 37.0959768,
    "phone": null,
    "hours": null
  },
  {
    "name": "Shell",
    "address": "kenyatta highway, Thika",
    "city": "Thika",
    "county": "Kiambu",
    "brand": "Shell",
    "latitude": -1.0420005,
    "longitude": 37.0715431,
    "phone": null,
    "hours": null
  },
  {
    "name": "Shell Petrol Station, Muguga",
    "address": "Garissa Road, Thika",
    "city": "Thika",
    "county": "Kiambu",
    "brand": "Shell",
    "latitude": -1.0614812,
    "longitude": 37.1579516,
    "phone": null,
    "hours": null
  },
  {
    "name": "Total",
    "address": "Garissa Road, Thika",
    "city": "Thika",
    "county": "Kiambu",
    "brand": "TotalEnergies",
    "latitude": -1.0434089,
    "longitude": 37.0675414,
    "phone": null,
    "hours": null
  },
  {
    "name": "Total",
    "address": "Thika-Mang'u Road, Thika",
    "city": "Thika",
    "county": "Kiambu",
    "brand": "TotalEnergies",
    "latitude": -1.0409573,
    "longitude": 37.0465045,
    "phone": null,
    "hours": null
  },
  {
    "name": "Total Thika Service Station",
    "address": "Kenyatta Highway, Thika",
    "city": "Thika",
    "county": "Kiambu",
    "brand": "TotalEnergies",
    "latitude": -1.0375518,
    "longitude": 37.0727162,
    "phone": null,
    "hours": null
  },
  {
    "name": "TOWBA PETRO",
    "address": "Garissa Road, Thika",
    "city": "Thika",
    "county": "Kiambu",
    "brand": "Petro Oil",
    "latitude": -1.0454274,
    "longitude": 37.0753888,
    "phone": null,
    "hours": null
  },
  {
    "name": "Eagol",
    "address": "Eagol, Kilifi",
    "city": "Kilifi",
    "county": "Kilifi",
    "brand": null,
    "latitude": -3.4837214,
    "longitude": 39.8953967,
    "phone": null,
    "hours": null
  },
  {
    "name": "Lexo Energy",
    "address": "Lexo Energy, Kilifi",
    "city": "Kilifi",
    "county": "Kilifi",
    "brand": "Lexo",
    "latitude": -3.6321404,
    "longitude": 39.8471294,
    "phone": null,
    "hours": null
  },
  {
    "name": "MoGas",
    "address": "MoGas, Kilifi",
    "city": "Kilifi",
    "county": "Kilifi",
    "brand": null,
    "latitude": -3.6330908,
    "longitude": 39.8516783,
    "phone": null,
    "hours": null
  },
  {
    "name": "MoGas",
    "address": "Malindi Road, Kilifi",
    "city": "Kilifi",
    "county": "Kilifi",
    "brand": null,
    "latitude": -3.6146964,
    "longitude": 39.8530971,
    "phone": null,
    "hours": null
  },
  {
    "name": "Rubis",
    "address": "Rubis, Kilifi",
    "city": "Kilifi",
    "county": "Kilifi",
    "brand": "Rubis",
    "latitude": -3.6227028,
    "longitude": 39.8483987,
    "phone": null,
    "hours": null
  },
  {
    "name": "Shell",
    "address": "Malindi Road, Kilifi",
    "city": "Kilifi",
    "county": "Kilifi",
    "brand": "Shell",
    "latitude": -3.5781282,
    "longitude": 39.8710195,
    "phone": null,
    "hours": null
  },
  {
    "name": "Eppic",
    "address": "Malindi Road, Malindi",
    "city": "Malindi",
    "county": "Kilifi",
    "brand": "EPPIC",
    "latitude": -3.223263,
    "longitude": 40.1119679,
    "phone": null,
    "hours": null
  },
  {
    "name": "National Oil Corporation",
    "address": "B8, Malindi",
    "city": "Malindi",
    "county": "Kilifi",
    "brand": "National Oil",
    "latitude": -3.2021596,
    "longitude": 40.1162537,
    "phone": null,
    "hours": null
  },
  {
    "name": "OLA Energy",
    "address": "Malindi-Garsen Road, Malindi",
    "city": "Malindi",
    "county": "Kilifi",
    "brand": "OLA Energy",
    "latitude": -3.1923585,
    "longitude": 40.1131657,
    "phone": null,
    "hours": null
  },
  {
    "name": "Rubis",
    "address": "B8, Malindi",
    "city": "Malindi",
    "county": "Kilifi",
    "brand": "Rubis",
    "latitude": -3.2126413,
    "longitude": 40.1181182,
    "phone": null,
    "hours": null
  },
  {
    "name": "Rubis",
    "address": "B8, Malindi",
    "city": "Malindi",
    "county": "Kilifi",
    "brand": "Rubis",
    "latitude": -3.2085411,
    "longitude": 40.1166625,
    "phone": null,
    "hours": null
  },
  {
    "name": "Shell",
    "address": "B8, Malindi",
    "city": "Malindi",
    "county": "Kilifi",
    "brand": "Shell",
    "latitude": -3.2115757,
    "longitude": 40.1213879,
    "phone": null,
    "hours": null
  },
  {
    "name": "Ainushamsi Energy Station Mariakani",
    "address": "Mombasa Road, Mariakani",
    "city": "Mariakani",
    "county": "Kilifi",
    "brand": null,
    "latitude": -3.8578959,
    "longitude": 39.4650132,
    "phone": null,
    "hours": null
  },
  {
    "name": "Kapitol Petrol Station",
    "address": "Mombasa Road, Mariakani",
    "city": "Mariakani",
    "county": "Kilifi",
    "brand": null,
    "latitude": -3.8661442,
    "longitude": 39.4762023,
    "phone": null,
    "hours": null
  },
  {
    "name": "Tiba Oil Petrol Station",
    "address": "Mombasa Road, Mariakani",
    "city": "Mariakani",
    "county": "Kilifi",
    "brand": null,
    "latitude": -3.8280093,
    "longitude": 39.4309615,
    "phone": null,
    "hours": null
  },
  {
    "name": "Total",
    "address": "Mombasa Road, Mariakani",
    "city": "Mariakani",
    "county": "Kilifi",
    "brand": "TotalEnergies",
    "latitude": -3.8642344,
    "longitude": 39.4740044,
    "phone": null,
    "hours": null
  },
  {
    "name": "Danca",
    "address": "Malindi Road, Mtwapa",
    "city": "Mtwapa",
    "county": "Kilifi",
    "brand": null,
    "latitude": -3.9339933,
    "longitude": 39.7462646,
    "phone": null,
    "hours": null
  },
  {
    "name": "Gapco",
    "address": "Malindi Road, Mtwapa",
    "city": "Mtwapa",
    "county": "Kilifi",
    "brand": "Gapco",
    "latitude": -3.9403165,
    "longitude": 39.7443657,
    "phone": null,
    "hours": null
  },
  {
    "name": "Lexo Energy",
    "address": "Malindi Road, Mtwapa",
    "city": "Mtwapa",
    "county": "Kilifi",
    "brand": "Lexo",
    "latitude": -3.9415074,
    "longitude": 39.7449225,
    "phone": null,
    "hours": null
  },
  {
    "name": "Mtawa Filling Station",
    "address": "Malindi Road, Mtwapa",
    "city": "Mtwapa",
    "county": "Kilifi",
    "brand": null,
    "latitude": -3.9451095,
    "longitude": 39.7453636,
    "phone": null,
    "hours": null
  },
  {
    "name": "Rubis",
    "address": "Malindi Road, Mtwapa",
    "city": "Mtwapa",
    "county": "Kilifi",
    "brand": "Rubis",
    "latitude": -3.9476894,
    "longitude": 39.7454323,
    "phone": null,
    "hours": null
  },
  {
    "name": "National Oil",
    "address": "C37, Kagio",
    "city": "Kagio",
    "county": "Kirinyaga",
    "brand": "National Oil",
    "latitude": -0.6243842,
    "longitude": 37.2560908,
    "phone": null,
    "hours": null
  },
  {
    "name": "National Oil Corporation-Sagana",
    "address": "C71, Sagana",
    "city": "Sagana",
    "county": "Kirinyaga",
    "brand": "National Oil",
    "latitude": -0.669294,
    "longitude": 37.2066595,
    "phone": null,
    "hours": null
  },
  {
    "name": "Rubis",
    "address": "A2, Sagana",
    "city": "Sagana",
    "county": "Kirinyaga",
    "brand": "Rubis",
    "latitude": -0.666193,
    "longitude": 37.212729,
    "phone": null,
    "hours": null
  },
  {
    "name": "Rubis",
    "address": "C71, Sagana",
    "city": "Sagana",
    "county": "Kirinyaga",
    "brand": "Rubis",
    "latitude": -0.6676486,
    "longitude": 37.2084131,
    "phone": null,
    "hours": null
  },
  {
    "name": "Total",
    "address": "A2, Sagana",
    "city": "Sagana",
    "county": "Kirinyaga",
    "brand": "TotalEnergies",
    "latitude": -0.664551,
    "longitude": 37.2091393,
    "phone": null,
    "hours": null
  },
  {
    "name": "Delta Petrol Station",
    "address": "B3, Kisii",
    "city": "Kisii",
    "county": "Kisii",
    "brand": "Delta",
    "latitude": -0.6659829,
    "longitude": 34.7608724,
    "phone": null,
    "hours": null
  },
  {
    "name": "Gesonso Petrol Station",
    "address": "Rongo-Kisii Road, Kisii",
    "city": "Kisii",
    "county": "Kisii",
    "brand": null,
    "latitude": -0.6620836,
    "longitude": 34.7406785,
    "phone": null,
    "hours": null
  },
  {
    "name": "Kobil Petrol station",
    "address": "B3, Kisii",
    "city": "Kisii",
    "county": "Kisii",
    "brand": "Kenol Kobil",
    "latitude": -0.6763182,
    "longitude": 34.7712592,
    "phone": null,
    "hours": null
  },
  {
    "name": "Lexo Energy Petrol Station Kisii",
    "address": "Kisii-sotik Road, Kisii",
    "city": "Kisii",
    "county": "Kisii",
    "brand": "Lexo",
    "latitude": -0.6800276,
    "longitude": 34.7759916,
    "phone": null,
    "hours": null
  },
  {
    "name": "National Oil",
    "address": "Cemetery Road, Kisii",
    "city": "Kisii",
    "county": "Kisii",
    "brand": "National Oil",
    "latitude": -0.6655414,
    "longitude": 34.7710228,
    "phone": null,
    "hours": null
  },
  {
    "name": "National Oil Corporation-Kisii Inaga",
    "address": "Migori-Rongo Road, Kisii",
    "city": "Kisii",
    "county": "Kisii",
    "brand": "National Oil",
    "latitude": -0.6776464,
    "longitude": 34.7698859,
    "phone": null,
    "hours": null
  },
  {
    "name": "National Oil Petro Station",
    "address": "Kisii-Kilgoris Road, Kisii",
    "city": "Kisii",
    "county": "Kisii",
    "brand": "National Oil",
    "latitude": -0.6911676,
    "longitude": 34.7763602,
    "phone": null,
    "hours": null
  },
  {
    "name": "Pe Obed",
    "address": "B3, Kisii",
    "city": "Kisii",
    "county": "Kisii",
    "brand": null,
    "latitude": -0.748701,
    "longitude": 34.8946582,
    "phone": null,
    "hours": null
  },
  {
    "name": "Pebo service station",
    "address": "Kisii-Rongo Road, Kisii",
    "city": "Kisii",
    "county": "Kisii",
    "brand": null,
    "latitude": -0.6221833,
    "longitude": 34.7555269,
    "phone": null,
    "hours": null
  },
  {
    "name": "Rubis",
    "address": "Cemetery Road, Kisii",
    "city": "Kisii",
    "county": "Kisii",
    "brand": "Rubis",
    "latitude": -0.6726848,
    "longitude": 34.772759,
    "phone": null,
    "hours": null
  },
  {
    "name": "Shell",
    "address": "Kisii-Rongo Road, Kisii",
    "city": "Kisii",
    "county": "Kisii",
    "brand": "Shell",
    "latitude": -0.6255562,
    "longitude": 34.7558102,
    "phone": null,
    "hours": null
  },
  {
    "name": "Tosha Petrol Station Kisii",
    "address": "B3, Kisii",
    "city": "Kisii",
    "county": "Kisii",
    "brand": null,
    "latitude": -0.6830566,
    "longitude": 34.7773679,
    "phone": null,
    "hours": null
  },
  {
    "name": "Total",
    "address": "B3, Kisii",
    "city": "Kisii",
    "county": "Kisii",
    "brand": "TotalEnergies",
    "latitude": -0.6727526,
    "longitude": 34.770384,
    "phone": null,
    "hours": null
  },
  {
    "name": "Total",
    "address": "Kisii-Kilgoris Road, Kisii",
    "city": "Kisii",
    "county": "Kisii",
    "brand": "TotalEnergies",
    "latitude": -0.6794126,
    "longitude": 34.7737003,
    "phone": null,
    "hours": null
  },
  {
    "name": "Gulf Energy - Kisii",
    "address": "B3, Musa Nyandusi",
    "city": "Musa Nyandusi",
    "county": "Kisii",
    "brand": "Gulf",
    "latitude": -0.7166151,
    "longitude": 34.8316967,
    "phone": null,
    "hours": null
  },
  {
    "name": "Riosiri Filling Station",
    "address": "C20, Tabaka",
    "city": "Tabaka",
    "county": "Kisii",
    "brand": null,
    "latitude": -0.769698,
    "longitude": 34.623861,
    "phone": null,
    "hours": null
  },
  {
    "name": "Abala Center",
    "address": "Nairobi Road, Kisumu",
    "city": "Kisumu",
    "county": "Kisumu",
    "brand": null,
    "latitude": -0.1705137,
    "longitude": 34.8773793,
    "phone": null,
    "hours": null
  },
  {
    "name": "Africa Fuels Kisumu",
    "address": "Africa Fuels Kisumu",
    "city": "Kisumu",
    "county": "Kisumu",
    "brand": "Africa Fuels",
    "latitude": -0.0795939,
    "longitude": 34.7851202,
    "phone": null,
    "hours": null
  },
  {
    "name": "Axon Energy",
    "address": "Kisumu-Busia Road, Kisumu",
    "city": "Kisumu",
    "county": "Kisumu",
    "brand": null,
    "latitude": -0.1263444,
    "longitude": 34.7938131,
    "phone": null,
    "hours": null
  },
  {
    "name": "Costalina Energy",
    "address": "Kisumu-Busia Road, Kisumu",
    "city": "Kisumu",
    "county": "Kisumu",
    "brand": null,
    "latitude": -0.0744644,
    "longitude": 34.6970278,
    "phone": null,
    "hours": null
  },
  {
    "name": "Densol Petrol Station",
    "address": "Nairobi Road, Kisumu",
    "city": "Kisumu",
    "county": "Kisumu",
    "brand": null,
    "latitude": -0.1535953,
    "longitude": 34.8326601,
    "phone": null,
    "hours": null
  },
  {
    "name": "Desnol Petrol Station",
    "address": "Kisumu -Vihiga Road, Kisumu",
    "city": "Kisumu",
    "county": "Kisumu",
    "brand": null,
    "latitude": -0.0284571,
    "longitude": 34.7494906,
    "phone": null,
    "hours": null
  },
  {
    "name": "Lake Energies Kisumu bypass",
    "address": "Lake Energies Kisumu bypass",
    "city": "Kisumu",
    "county": "Kisumu",
    "brand": null,
    "latitude": -0.0805221,
    "longitude": 34.7524714,
    "phone": null,
    "hours": null
  },
  {
    "name": "Lakefill",
    "address": "Kisumu -Vihiga Road, Kisumu",
    "city": "Kisumu",
    "county": "Kisumu",
    "brand": null,
    "latitude": -0.0398306,
    "longitude": 34.7591199,
    "phone": null,
    "hours": null
  },
  {
    "name": "National oil",
    "address": "Jomo Kenyatta Highway, Kisumu",
    "city": "Kisumu",
    "county": "Kisumu",
    "brand": "National Oil",
    "latitude": -0.0860683,
    "longitude": 34.771776,
    "phone": null,
    "hours": null
  },
  {
    "name": "National Oil",
    "address": "Achieng' Oneko Road, Kisumu",
    "city": "Kisumu",
    "county": "Kisumu",
    "brand": "National Oil",
    "latitude": -0.1032287,
    "longitude": 34.7560119,
    "phone": null,
    "hours": null
  },
  {
    "name": "National Oil",
    "address": "Jomo Kenyatta Highway, Kisumu",
    "city": "Kisumu",
    "county": "Kisumu",
    "brand": "National Oil",
    "latitude": -0.1011028,
    "longitude": 34.7583222,
    "phone": null,
    "hours": null
  },
  {
    "name": "National Oil",
    "address": "Obote Road, Kisumu",
    "city": "Kisumu",
    "county": "Kisumu",
    "brand": "National Oil",
    "latitude": -0.0977946,
    "longitude": 34.7503066,
    "phone": null,
    "hours": null
  },
  {
    "name": "Oilcom K",
    "address": "Kakamega Road, Kisumu",
    "city": "Kisumu",
    "county": "Kisumu",
    "brand": "Oilcom",
    "latitude": -0.0641033,
    "longitude": 34.7754656,
    "phone": null,
    "hours": null
  },
  {
    "name": "Ola Energy",
    "address": "Jomo Kenyatta Highway, Kisumu",
    "city": "Kisumu",
    "county": "Kisumu",
    "brand": "OLA Energy",
    "latitude": -0.0933521,
    "longitude": 34.7658008,
    "phone": null,
    "hours": null
  },
  {
    "name": "OLA Energy",
    "address": "Paul Mbuya Road, Kisumu",
    "city": "Kisumu",
    "county": "Kisumu",
    "brand": "OLA Energy",
    "latitude": -0.1004802,
    "longitude": 34.7531149,
    "phone": null,
    "hours": null
  },
  {
    "name": "Rabet Filling Station",
    "address": "Kisumu-Busia Road, Kisumu",
    "city": "Kisumu",
    "county": "Kisumu",
    "brand": null,
    "latitude": -0.0401801,
    "longitude": 34.6367317,
    "phone": null,
    "hours": null
  },
  {
    "name": "Rasmi Filling Station",
    "address": "Kisumu-Busia Road, Kisumu",
    "city": "Kisumu",
    "county": "Kisumu",
    "brand": null,
    "latitude": -0.1204045,
    "longitude": 34.7906618,
    "phone": null,
    "hours": null
  },
  {
    "name": "Regnol Oil",
    "address": "Nairobi Road, Kisumu",
    "city": "Kisumu",
    "county": "Kisumu",
    "brand": null,
    "latitude": -0.1113835,
    "longitude": 34.7808737,
    "phone": null,
    "hours": null
  },
  {
    "name": "RIK-OIL",
    "address": "Kisumu-Busia Road, Kisumu",
    "city": "Kisumu",
    "county": "Kisumu",
    "brand": null,
    "latitude": -0.0449008,
    "longitude": 34.6502929,
    "phone": null,
    "hours": null
  },
  {
    "name": "Rubis",
    "address": "Kisumu-Busia Road, Kisumu",
    "city": "Kisumu",
    "county": "Kisumu",
    "brand": "Rubis",
    "latitude": -0.0748131,
    "longitude": 34.7052904,
    "phone": null,
    "hours": null
  },
  {
    "name": "Rubis",
    "address": "Obote Road, Kisumu",
    "city": "Kisumu",
    "county": "Kisumu",
    "brand": "Rubis",
    "latitude": -0.0914241,
    "longitude": 34.7569192,
    "phone": null,
    "hours": null
  },
  {
    "name": "shell",
    "address": "Kisumu-Busia Road, Kisumu",
    "city": "Kisumu",
    "county": "Kisumu",
    "brand": "Shell",
    "latitude": -0.0743221,
    "longitude": 34.6821369,
    "phone": null,
    "hours": null
  },
  {
    "name": "Shell",
    "address": "Kisumu-Busia Road, Kisumu",
    "city": "Kisumu",
    "county": "Kisumu",
    "brand": "Shell",
    "latitude": -0.1443383,
    "longitude": 34.8022004,
    "phone": null,
    "hours": null
  },
  {
    "name": "Shell",
    "address": "Shell, Kisumu",
    "city": "Kisumu",
    "county": "Kisumu",
    "brand": "Shell",
    "latitude": -0.1304276,
    "longitude": 34.7949783,
    "phone": null,
    "hours": null
  },
  {
    "name": "Shell",
    "address": "Kisumu-Busia Road, Kisumu",
    "city": "Kisumu",
    "county": "Kisumu",
    "brand": "Shell",
    "latitude": -0.0744429,
    "longitude": 34.6915221,
    "phone": null,
    "hours": null
  },
  {
    "name": "Taaz Energy",
    "address": "Kisumu-Busia Road, Kisumu",
    "city": "Kisumu",
    "county": "Kisumu",
    "brand": null,
    "latitude": -0.0745068,
    "longitude": 34.6938663,
    "phone": null,
    "hours": null
  },
  {
    "name": "Total",
    "address": "Makasembo Road, Kisumu",
    "city": "Kisumu",
    "county": "Kisumu",
    "brand": "TotalEnergies",
    "latitude": -0.0958907,
    "longitude": 34.7531853,
    "phone": null,
    "hours": null
  },
  {
    "name": "Total Energies Busia Road Service Station",
    "address": "Kisumu-Busia Road, Kisumu",
    "city": "Kisumu",
    "county": "Kisumu",
    "brand": "TotalEnergies",
    "latitude": -0.0804944,
    "longitude": 34.7418058,
    "phone": null,
    "hours": null
  },
  {
    "name": "Riva Kitui Petrol Station",
    "address": "Kibwezi - Kitui Road, Kitui",
    "city": "Kitui",
    "county": "Kitui",
    "brand": "Riva",
    "latitude": -1.3712892,
    "longitude": 38.0102539,
    "phone": null,
    "hours": null
  },
  {
    "name": "Shell",
    "address": "Kibwezi - Kitui Road, Kitui",
    "city": "Kitui",
    "county": "Kitui",
    "brand": "Shell",
    "latitude": -1.3583132,
    "longitude": 38.0071556,
    "phone": null,
    "hours": null
  },
  {
    "name": "Total",
    "address": "Kibwezi - Kitui Road, Kitui",
    "city": "Kitui",
    "county": "Kitui",
    "brand": "TotalEnergies",
    "latitude": -1.3642114,
    "longitude": 38.0110834,
    "phone": null,
    "hours": null
  },
  {
    "name": "Eber Fuel Pump.",
    "address": "Bus Park Road, Mwingi",
    "city": "Mwingi",
    "county": "Kitui",
    "brand": null,
    "latitude": -0.9325542,
    "longitude": 38.0580896,
    "phone": null,
    "hours": null
  },
  {
    "name": "Lilly energy petrol station",
    "address": "Garissa Road, Mwingi",
    "city": "Mwingi",
    "county": "Kitui",
    "brand": null,
    "latitude": -0.9376026,
    "longitude": 38.0696086,
    "phone": null,
    "hours": null
  },
  {
    "name": "Mwingi Shell Petrol Station",
    "address": "Garissa Road, Mwingi",
    "city": "Mwingi",
    "county": "Kitui",
    "brand": "Shell",
    "latitude": -0.9374253,
    "longitude": 38.0445144,
    "phone": null,
    "hours": null
  },
  {
    "name": "National Oil Filling Station",
    "address": "Garissa Road, Mwingi",
    "city": "Mwingi",
    "county": "Kitui",
    "brand": "National Oil",
    "latitude": -0.9367754,
    "longitude": 38.0715261,
    "phone": null,
    "hours": null
  },
  {
    "name": "National oil petrol station",
    "address": "Garissa Road, Mwingi",
    "city": "Mwingi",
    "county": "Kitui",
    "brand": "National Oil",
    "latitude": -0.9370039,
    "longitude": 38.0633361,
    "phone": null,
    "hours": null
  },
  {
    "name": "Osa Vinya Petrol Station",
    "address": "Garissa Road, Mwingi",
    "city": "Mwingi",
    "county": "Kitui",
    "brand": null,
    "latitude": -0.9339791,
    "longitude": 38.0567687,
    "phone": null,
    "hours": null
  },
  {
    "name": "U. M Petrol Station",
    "address": "Garissa Road, Mwingi",
    "city": "Mwingi",
    "county": "Kitui",
    "brand": null,
    "latitude": -0.9340274,
    "longitude": 38.0545881,
    "phone": null,
    "hours": null
  },
  {
    "name": "Flamex Petroleum Ukunda Depot",
    "address": "Diani Beach Road, Diani Beach",
    "city": "Diani Beach",
    "county": "Kwale",
    "brand": null,
    "latitude": -4.2997335,
    "longitude": 39.5720383,
    "phone": null,
    "hours": null
  },
  {
    "name": "Petro- Diani",
    "address": "Diani Beach Road, Diani Beach",
    "city": "Diani Beach",
    "county": "Kwale",
    "brand": "Petro Oil",
    "latitude": -4.2876676,
    "longitude": 39.5792334,
    "phone": null,
    "hours": null
  },
  {
    "name": "Behind Total Petrol Station",
    "address": "Ukunda-Ramisi Road, Ukunda",
    "city": "Ukunda",
    "county": "Kwale",
    "brand": "TotalEnergies",
    "latitude": -4.2784555,
    "longitude": 39.5671344,
    "phone": null,
    "hours": null
  },
  {
    "name": "Diani - Mart Service Station",
    "address": "Ukunda-Ramisi Road, Ukunda",
    "city": "Ukunda",
    "county": "Kwale",
    "brand": "Diani",
    "latitude": -4.2814633,
    "longitude": 39.5665535,
    "phone": null,
    "hours": null
  },
  {
    "name": "Caltex",
    "address": "Nanyuki-Rumuruti Road, Nanyuki",
    "city": "Nanyuki",
    "county": "Laikipia",
    "brand": "Caltex",
    "latitude": 0.0153138,
    "longitude": 37.0783991,
    "phone": null,
    "hours": null
  },
  {
    "name": "Delta Refill Station",
    "address": "Nyeri-Nanyuki Road, Nanyuki",
    "city": "Nanyuki",
    "county": "Laikipia",
    "brand": "Delta",
    "latitude": -0.0400309,
    "longitude": 37.054533,
    "phone": null,
    "hours": null
  },
  {
    "name": "Gulf Energy - Nanyuki",
    "address": "Nyeri-Nanyuki Road, Nanyuki",
    "city": "Nanyuki",
    "county": "Laikipia",
    "brand": "Gulf",
    "latitude": 0.0033415,
    "longitude": 37.0722699,
    "phone": null,
    "hours": null
  },
  {
    "name": "OLA Energy",
    "address": "Nyeri-Nanyuki Road, Nanyuki",
    "city": "Nanyuki",
    "county": "Laikipia",
    "brand": "OLA Energy",
    "latitude": 0.0093031,
    "longitude": 37.0756909,
    "phone": null,
    "hours": null
  },
  {
    "name": "Rubis",
    "address": "Market Road, Nanyuki",
    "city": "Nanyuki",
    "county": "Laikipia",
    "brand": "Rubis",
    "latitude": 0.0117642,
    "longitude": 37.0749664,
    "phone": null,
    "hours": null
  },
  {
    "name": "Rubis",
    "address": "A2, Nanyuki",
    "city": "Nanyuki",
    "county": "Laikipia",
    "brand": "Rubis",
    "latitude": 0.0324099,
    "longitude": 37.1107633,
    "phone": null,
    "hours": null
  },
  {
    "name": "Shell",
    "address": "Nyeri-Nanyuki Road, Nanyuki",
    "city": "Nanyuki",
    "county": "Laikipia",
    "brand": "Shell",
    "latitude": 0.0058051,
    "longitude": 37.0729859,
    "phone": null,
    "hours": null
  },
  {
    "name": "Gulf Energy - Nyahururu",
    "address": "Gilgil-Nyahururu Road, Nyahururu",
    "city": "Nyahururu",
    "county": "Laikipia",
    "brand": "Gulf",
    "latitude": 0.0240201,
    "longitude": 36.3649449,
    "phone": null,
    "hours": null
  },
  {
    "name": "Gulf Petrol Station - Mairo Inya",
    "address": "Nyeri-Nyahururu Road, Nyahururu",
    "city": "Nyahururu",
    "county": "Laikipia",
    "brand": "Gulf",
    "latitude": 0.0250235,
    "longitude": 36.4118137,
    "phone": null,
    "hours": null
  },
  {
    "name": "Lake Oil Station",
    "address": "Gilgil-Nyahururu Road, Nyahururu",
    "city": "Nyahururu",
    "county": "Laikipia",
    "brand": "Lake Oil",
    "latitude": -0.0132044,
    "longitude": 36.3634874,
    "phone": null,
    "hours": null
  },
  {
    "name": "National Oil Corporation-Nyahururu",
    "address": "Koinange Road, Nyahururu",
    "city": "Nyahururu",
    "county": "Laikipia",
    "brand": "National Oil",
    "latitude": 0.03286,
    "longitude": 36.3600715,
    "phone": null,
    "hours": null
  },
  {
    "name": "Njepa Petrol Station",
    "address": "Nyeri-Nyahururu Road, Nyahururu",
    "city": "Nyahururu",
    "county": "Laikipia",
    "brand": null,
    "latitude": 0.040003,
    "longitude": 36.3810129,
    "phone": null,
    "hours": null
  },
  {
    "name": "OLA Energy",
    "address": "Nyeri-Nyahururu Road, Nyahururu",
    "city": "Nyahururu",
    "county": "Laikipia",
    "brand": "OLA Energy",
    "latitude": 0.0382731,
    "longitude": 36.3634096,
    "phone": null,
    "hours": null
  },
  {
    "name": "Rubis",
    "address": "Gilgil-Nyahururu Road, Nyahururu",
    "city": "Nyahururu",
    "county": "Laikipia",
    "brand": "Rubis",
    "latitude": 0.027933,
    "longitude": 36.3658666,
    "phone": null,
    "hours": null
  },
  {
    "name": "Samax Filling Station",
    "address": "Nyeri-Nyahururu Road, Nyahururu",
    "city": "Nyahururu",
    "county": "Laikipia",
    "brand": null,
    "latitude": 0.0249322,
    "longitude": 36.4083452,
    "phone": null,
    "hours": null
  },
  {
    "name": "Total Gas Station",
    "address": "Sharpe Road, Nyahururu",
    "city": "Nyahururu",
    "county": "Laikipia",
    "brand": "TotalEnergies",
    "latitude": 0.0352954,
    "longitude": 36.3656243,
    "phone": null,
    "hours": null
  },
  {
    "name": "Bakri Athi River Petrol Station",
    "address": "Nairobi - Mombasa Road, Athi River",
    "city": "Athi River",
    "county": "Machakos",
    "brand": null,
    "latitude": -1.4459791,
    "longitude": 36.9962185,
    "phone": null,
    "hours": null
  },
  {
    "name": "Engen Athi River",
    "address": "Nairobi - Mombasa Road, Athi River",
    "city": "Athi River",
    "county": "Machakos",
    "brand": "Engen",
    "latitude": -1.4428876,
    "longitude": 36.9890303,
    "phone": null,
    "hours": null
  },
  {
    "name": "Gulf Energy -Paws Station Kitengela",
    "address": "Namanga Road, Athi River",
    "city": "Athi River",
    "county": "Machakos",
    "brand": "Gulf",
    "latitude": -1.4811179,
    "longitude": 36.9567096,
    "phone": null,
    "hours": null
  },
  {
    "name": "Oil Den Petrol Station",
    "address": "Nairobi - Mombasa Road, Athi River",
    "city": "Athi River",
    "county": "Machakos",
    "brand": null,
    "latitude": -1.4434228,
    "longitude": 36.9921843,
    "phone": null,
    "hours": null
  },
  {
    "name": "Petrocity",
    "address": "Mombasa Road, Athi River",
    "city": "Athi River",
    "county": "Machakos",
    "brand": "Petrocity",
    "latitude": -1.4301188,
    "longitude": 36.9610746,
    "phone": null,
    "hours": null
  },
  {
    "name": "Rubis",
    "address": "Namanga Road, Athi River",
    "city": "Athi River",
    "county": "Machakos",
    "brand": "Rubis",
    "latitude": -1.4771497,
    "longitude": 36.9585901,
    "phone": null,
    "hours": null
  },
  {
    "name": "Rubis",
    "address": "Namanga Road, Athi River",
    "city": "Athi River",
    "county": "Machakos",
    "brand": "Rubis",
    "latitude": -1.4481571,
    "longitude": 36.9689525,
    "phone": null,
    "hours": null
  },
  {
    "name": "Rubis",
    "address": "Makadara Road, Athi River",
    "city": "Athi River",
    "county": "Machakos",
    "brand": "Rubis",
    "latitude": -1.4520807,
    "longitude": 36.9686506,
    "phone": null,
    "hours": null
  },
  {
    "name": "Rubis",
    "address": "Mombasa Road, Athi River",
    "city": "Athi River",
    "county": "Machakos",
    "brand": "Rubis",
    "latitude": -1.4272077,
    "longitude": 36.9608235,
    "phone": null,
    "hours": null
  },
  {
    "name": "Shell",
    "address": "Nairobi - Mombasa Road, Athi River",
    "city": "Athi River",
    "county": "Machakos",
    "brand": "Shell",
    "latitude": -1.4560452,
    "longitude": 37.0043063,
    "phone": null,
    "hours": null
  },
  {
    "name": "Shell Kitengela",
    "address": "Namanga Road, Athi River",
    "city": "Athi River",
    "county": "Machakos",
    "brand": "Shell",
    "latitude": -1.5044204,
    "longitude": 36.9541025,
    "phone": null,
    "hours": null
  },
  {
    "name": "Shell Kitengela ex-Engen",
    "address": "Pinto Road, Athi River",
    "city": "Athi River",
    "county": "Machakos",
    "brand": "Shell",
    "latitude": -1.4911341,
    "longitude": 36.9543575,
    "phone": null,
    "hours": null
  },
  {
    "name": "Total",
    "address": "Mombasa Road, Athi River",
    "city": "Athi River",
    "county": "Machakos",
    "brand": "TotalEnergies",
    "latitude": -1.4196563,
    "longitude": 36.9540436,
    "phone": null,
    "hours": null
  },
  {
    "name": "Total Athi River",
    "address": "Mombasa Road, Athi River",
    "city": "Athi River",
    "county": "Machakos",
    "brand": "TotalEnergies",
    "latitude": -1.439511,
    "longitude": 36.9786589,
    "phone": null,
    "hours": null
  },
  {
    "name": "Rubis",
    "address": "Kangundo Road, Kangundo",
    "city": "Kangundo",
    "county": "Machakos",
    "brand": "Rubis",
    "latitude": -1.3033811,
    "longitude": 37.3475306,
    "phone": null,
    "hours": null
  },
  {
    "name": "Mona petro",
    "address": "Garissa Road, Kathiani",
    "city": "Kathiani",
    "county": "Machakos",
    "brand": "Petro Oil",
    "latitude": -1.0984445,
    "longitude": 37.6743541,
    "phone": null,
    "hours": null
  },
  {
    "name": "Gulf Energy - Machakos Junction",
    "address": "Nairobi - Mombasa Road, Machakos",
    "city": "Machakos",
    "county": "Machakos",
    "brand": "Gulf",
    "latitude": -1.5291018,
    "longitude": 37.1267736,
    "phone": null,
    "hours": null
  },
  {
    "name": "National Oil Petrol Station Machakos",
    "address": "Chumvi-Machakos-Kitui Road, Machakos",
    "city": "Machakos",
    "county": "Machakos",
    "brand": "National Oil",
    "latitude": -1.5202648,
    "longitude": 37.2349549,
    "phone": null,
    "hours": null
  },
  {
    "name": "Shell",
    "address": "Machakos-Kitui Road, Machakos",
    "city": "Machakos",
    "county": "Machakos",
    "brand": "Shell",
    "latitude": -1.5208766,
    "longitude": 37.2671423,
    "phone": null,
    "hours": null
  },
  {
    "name": "Total Machakos Service Station",
    "address": "Chumvi-Machakos-Kitui Road, Machakos",
    "city": "Machakos",
    "county": "Machakos",
    "brand": "TotalEnergies",
    "latitude": -1.5184376,
    "longitude": 37.2648,
    "phone": null,
    "hours": null
  },
  {
    "name": "Total Mutituni",
    "address": "Machakos-Kagundo Road, Machakos",
    "city": "Machakos",
    "county": "Machakos",
    "brand": "TotalEnergies",
    "latitude": -1.4589988,
    "longitude": 37.2502719,
    "phone": null,
    "hours": null
  },
  {
    "name": "Petro",
    "address": "Garissa Road, Matuu",
    "city": "Matuu",
    "county": "Machakos",
    "brand": "Petro Oil",
    "latitude": -1.143627,
    "longitude": 37.551109,
    "phone": null,
    "hours": null
  },
  {
    "name": "Oilcom Filling Station",
    "address": "Mombasa Road, Mlolongo",
    "city": "Mlolongo",
    "county": "Machakos",
    "brand": "Oilcom",
    "latitude": -1.3878699,
    "longitude": 36.9364666,
    "phone": null,
    "hours": null
  },
  {
    "name": "Publicity Stores",
    "address": "Mombasa Road, Mlolongo",
    "city": "Mlolongo",
    "county": "Machakos",
    "brand": null,
    "latitude": -1.3913424,
    "longitude": 36.9384258,
    "phone": null,
    "hours": null
  },
  {
    "name": "Shell",
    "address": "Mombasa Road, Mlolongo",
    "city": "Mlolongo",
    "county": "Machakos",
    "brand": "Shell",
    "latitude": -1.3954434,
    "longitude": 36.9397177,
    "phone": null,
    "hours": null
  },
  {
    "name": "Astrol Petrol Station, Mlolongo",
    "address": "Mombasa Road, Syokimau",
    "city": "Syokimau",
    "county": "Machakos",
    "brand": "Astrol",
    "latitude": -1.3685272,
    "longitude": 36.9168248,
    "phone": null,
    "hours": null
  },
  {
    "name": "LuqMan Petrol Station",
    "address": "Mombasa Road, Syokimau",
    "city": "Syokimau",
    "county": "Machakos",
    "brand": null,
    "latitude": -1.3760649,
    "longitude": 36.9236137,
    "phone": null,
    "hours": null
  },
  {
    "name": "Shell Syokimau",
    "address": "Shell Syokimau",
    "city": "Syokimau",
    "county": "Machakos",
    "brand": "Shell",
    "latitude": -1.3780909,
    "longitude": 36.9278176,
    "phone": null,
    "hours": null
  },
  {
    "name": "Shell- Syokimau",
    "address": "Mombasa Road, Syokimau",
    "city": "Syokimau",
    "county": "Machakos",
    "brand": "Shell",
    "latitude": -1.3573745,
    "longitude": 36.9077691,
    "phone": null,
    "hours": null
  },
  {
    "name": "OLA Energy",
    "address": "Kangundo Road, Tala",
    "city": "Tala",
    "county": "Machakos",
    "brand": "OLA Energy",
    "latitude": -1.283146,
    "longitude": 37.2813185,
    "phone": null,
    "hours": null
  },
  {
    "name": "Shell",
    "address": "Kangundo Road, Tala",
    "city": "Tala",
    "county": "Machakos",
    "brand": "Shell",
    "latitude": -1.2674934,
    "longitude": 37.3158262,
    "phone": null,
    "hours": null
  },
  {
    "name": "TotalEnergies Tala Service Station",
    "address": "TotalEnergies Tala Service Station",
    "city": "Tala",
    "county": "Machakos",
    "brand": "TotalEnergies",
    "latitude": -1.2666931,
    "longitude": 37.3195709,
    "phone": null,
    "hours": null
  },
  {
    "name": "Darusalam petroleum service",
    "address": "Mombasa Road, Mtito Andei",
    "city": "Mtito Andei",
    "county": "Makueni",
    "brand": null,
    "latitude": -2.6638107,
    "longitude": 38.1193316,
    "phone": null,
    "hours": null
  },
  {
    "name": "OLA energy",
    "address": "Mombasa Road, Mtito Andei",
    "city": "Mtito Andei",
    "county": "Makueni",
    "brand": "OLA Energy",
    "latitude": -2.6931801,
    "longitude": 38.1658735,
    "phone": null,
    "hours": null
  },
  {
    "name": "Petrol Station",
    "address": "Mombasa Road, Sultan Hamud",
    "city": "Sultan Hamud",
    "county": "Makueni",
    "brand": "Petro Oil",
    "latitude": -2.0183578,
    "longitude": 37.3760516,
    "phone": null,
    "hours": null
  },
  {
    "name": "Riverside Filling Station",
    "address": "Mombasa Road, Sultan Hamud",
    "city": "Sultan Hamud",
    "county": "Makueni",
    "brand": null,
    "latitude": -2.0138603,
    "longitude": 37.3717414,
    "phone": null,
    "hours": null
  },
  {
    "name": "Elwak Services Petrol Station",
    "address": "Isiolo-Mandera Road, El Wak",
    "city": "El Wak",
    "county": "Mandera",
    "brand": null,
    "latitude": 2.8072623,
    "longitude": 40.9309436,
    "phone": null,
    "hours": null
  },
  {
    "name": "Dido Service Station",
    "address": "Isiolo-Mandera Road, Mandera",
    "city": "Mandera",
    "county": "Mandera",
    "brand": null,
    "latitude": 3.9378125,
    "longitude": 41.8603495,
    "phone": null,
    "hours": null
  },
  {
    "name": "Elwak Services Petrol Station",
    "address": "Isiolo-Mandera Road, Mandera",
    "city": "Mandera",
    "county": "Mandera",
    "brand": null,
    "latitude": 3.9366693,
    "longitude": 41.8642633,
    "phone": null,
    "hours": null
  },
  {
    "name": "Haji Bullow Petrol Station",
    "address": "Isiolo-Mandera Road, Mandera",
    "city": "Mandera",
    "county": "Mandera",
    "brand": null,
    "latitude": 3.9361123,
    "longitude": 41.8570234,
    "phone": null,
    "hours": null
  },
  {
    "name": "Khalil Gas Station",
    "address": "Isiolo-Mandera Road, Mandera",
    "city": "Mandera",
    "county": "Mandera",
    "brand": null,
    "latitude": 3.9386626,
    "longitude": 41.8638519,
    "phone": null,
    "hours": null
  },
  {
    "name": "Mubarak Service Station",
    "address": "Isiolo-Mandera Road, Mandera",
    "city": "Mandera",
    "county": "Mandera",
    "brand": null,
    "latitude": 3.935315,
    "longitude": 41.8521047,
    "phone": null,
    "hours": null
  },
  {
    "name": "National Oil",
    "address": "Marsabit-Moyale road, Marsabit",
    "city": "Marsabit",
    "county": "Marsabit",
    "brand": "National Oil",
    "latitude": 2.3302262,
    "longitude": 37.9864435,
    "phone": null,
    "hours": null
  },
  {
    "name": "Queens Petrol Station",
    "address": "Marsabit-Moyale road, Marsabit",
    "city": "Marsabit",
    "county": "Marsabit",
    "brand": null,
    "latitude": 2.3436975,
    "longitude": 37.9920137,
    "phone": null,
    "hours": null
  },
  {
    "name": "Shell",
    "address": "Post office road, Marsabit",
    "city": "Marsabit",
    "county": "Marsabit",
    "brand": "Shell",
    "latitude": 2.32971,
    "longitude": 37.9882189,
    "phone": null,
    "hours": null
  },
  {
    "name": "Kenol Petrol Station",
    "address": "Meru-Maua Road, Maua",
    "city": "Maua",
    "county": "Meru",
    "brand": "Kenol Kobil",
    "latitude": 0.2329549,
    "longitude": 37.9405894,
    "phone": null,
    "hours": null
  },
  {
    "name": "Oilibya Maua",
    "address": "Meru-Maua Road, Maua",
    "city": "Maua",
    "county": "Meru",
    "brand": "Oilibya",
    "latitude": 0.2373624,
    "longitude": 37.9399801,
    "phone": null,
    "hours": null
  },
  {
    "name": "Downtown Filling Station",
    "address": "Njuri Ncheke Street, Meru",
    "city": "Meru",
    "county": "Meru",
    "brand": null,
    "latitude": 0.0455172,
    "longitude": 37.6590806,
    "phone": null,
    "hours": null
  },
  {
    "name": "Gulf Energy",
    "address": "Njuri Ncheke Street, Meru",
    "city": "Meru",
    "county": "Meru",
    "brand": "Gulf",
    "latitude": 0.0455721,
    "longitude": 37.6532295,
    "phone": null,
    "hours": null
  },
  {
    "name": "Gulf Energy",
    "address": "Meru-Nairobi Highway, Meru",
    "city": "Meru",
    "county": "Meru",
    "brand": "Gulf",
    "latitude": 0.0589525,
    "longitude": 37.638126,
    "phone": null,
    "hours": null
  },
  {
    "name": "LR Petrol Station",
    "address": "Meru-Maua Road, Meru",
    "city": "Meru",
    "county": "Meru",
    "brand": "LR",
    "latitude": 0.0731418,
    "longitude": 37.6485048,
    "phone": null,
    "hours": null
  },
  {
    "name": "Mogas Petrol Station Kianjai",
    "address": "Meru-Maua Road, Meru",
    "city": "Meru",
    "county": "Meru",
    "brand": "Kadi",
    "latitude": 0.1591136,
    "longitude": 37.7433172,
    "phone": null,
    "hours": null
  },
  {
    "name": "National Oil And gas Station - Kianjai",
    "address": "Meru-Maua Road, Meru",
    "city": "Meru",
    "county": "Meru",
    "brand": "National Oil",
    "latitude": 0.1619714,
    "longitude": 37.7473581,
    "phone": null,
    "hours": null
  },
  {
    "name": "Petro Oil",
    "address": "Meru-Nairobi Highway, Meru",
    "city": "Meru",
    "county": "Meru",
    "brand": "Petro Oil",
    "latitude": 0.0495234,
    "longitude": 37.6474955,
    "phone": null,
    "hours": null
  },
  {
    "name": "PetroPerú - Gas Station",
    "address": "Meru-Nairobi Highway, Meru",
    "city": "Meru",
    "county": "Meru",
    "brand": "Petro Oil",
    "latitude": 0.0474269,
    "longitude": 37.6495425,
    "phone": null,
    "hours": null
  },
  {
    "name": "Rubis",
    "address": "Njuri Ncheke Street, Meru",
    "city": "Meru",
    "county": "Meru",
    "brand": "Rubis",
    "latitude": 0.0452026,
    "longitude": 37.6552983,
    "phone": null,
    "hours": null
  },
  {
    "name": "Rubis",
    "address": "Meru-Nairobi Highway, Meru",
    "city": "Meru",
    "county": "Meru",
    "brand": "Rubis",
    "latitude": 0.0388545,
    "longitude": 37.6532793,
    "phone": null,
    "hours": null
  },
  {
    "name": "Rubui Oil Petrol Station",
    "address": "D 484, Meru",
    "city": "Meru",
    "county": "Meru",
    "brand": null,
    "latitude": 0.1494706,
    "longitude": 37.657494,
    "phone": null,
    "hours": null
  },
  {
    "name": "Shell",
    "address": "Meru-Nairobi Highway, Meru",
    "city": "Meru",
    "county": "Meru",
    "brand": "Shell",
    "latitude": 0.0355898,
    "longitude": 37.6552161,
    "phone": null,
    "hours": null
  },
  {
    "name": "Shell",
    "address": "Meru-Maua Road, Meru",
    "city": "Meru",
    "county": "Meru",
    "brand": "Shell",
    "latitude": 0.0573402,
    "longitude": 37.6424737,
    "phone": null,
    "hours": null
  },
  {
    "name": "Shell",
    "address": "Meru-Nairobi Highway, Meru",
    "city": "Meru",
    "county": "Meru",
    "brand": "Shell",
    "latitude": 0.0602397,
    "longitude": 37.6365516,
    "phone": null,
    "hours": null
  },
  {
    "name": "Total",
    "address": "Meru-Maua Road, Meru",
    "city": "Meru",
    "county": "Meru",
    "brand": "TotalEnergies",
    "latitude": 0.0605535,
    "longitude": 37.6442457,
    "phone": null,
    "hours": null
  },
  {
    "name": "Total",
    "address": "Meru-Maua Road, Meru",
    "city": "Meru",
    "county": "Meru",
    "brand": "TotalEnergies",
    "latitude": 0.0644025,
    "longitude": 37.6471789,
    "phone": null,
    "hours": null
  },
  {
    "name": "Total",
    "address": "Embu-Meru Highway, Meru",
    "city": "Meru",
    "county": "Meru",
    "brand": "TotalEnergies",
    "latitude": 0.0508699,
    "longitude": 37.645618,
    "phone": null,
    "hours": null
  },
  {
    "name": "Gulf Petrol Station",
    "address": "Meru-Nairobi Highway, Nkubu",
    "city": "Nkubu",
    "county": "Meru",
    "brand": "Gulf",
    "latitude": -0.049853,
    "longitude": 37.6558177,
    "phone": null,
    "hours": null
  },
  {
    "name": "Rubis",
    "address": "Meru-Nairobi Highway, Nkubu",
    "city": "Nkubu",
    "county": "Meru",
    "brand": "Rubis",
    "latitude": -0.0650546,
    "longitude": 37.6636601,
    "phone": null,
    "hours": null
  },
  {
    "name": "Shell",
    "address": "Meru-Nairobi Highway, Nkubu",
    "city": "Nkubu",
    "county": "Meru",
    "brand": "Shell",
    "latitude": -0.0742454,
    "longitude": 37.6705787,
    "phone": null,
    "hours": null
  },
  {
    "name": "Jamaa Filling Station",
    "address": "Jamaa Filling Station, Migori",
    "city": "Migori",
    "county": "Migori",
    "brand": null,
    "latitude": -1.060109,
    "longitude": 34.4744829,
    "phone": null,
    "hours": null
  },
  {
    "name": "National Oil Migori",
    "address": "A1, Migori",
    "city": "Migori",
    "county": "Migori",
    "brand": "National Oil",
    "latitude": -1.0531532,
    "longitude": 34.4754682,
    "phone": null,
    "hours": null
  },
  {
    "name": "Petro Petrol Station",
    "address": "Petro Petrol Station, Migori",
    "city": "Migori",
    "county": "Migori",
    "brand": "Petro Oil",
    "latitude": -1.0643939,
    "longitude": 34.4721081,
    "phone": null,
    "hours": null
  },
  {
    "name": "Premacy Petrol Station",
    "address": "A1, Migori",
    "city": "Migori",
    "county": "Migori",
    "brand": null,
    "latitude": -1.0303691,
    "longitude": 34.4757052,
    "phone": null,
    "hours": null
  },
  {
    "name": "Salah",
    "address": "A1, Migori",
    "city": "Migori",
    "county": "Migori",
    "brand": null,
    "latitude": -1.0768421,
    "longitude": 34.4668888,
    "phone": null,
    "hours": null
  },
  {
    "name": "Al Heidy Gas Supply",
    "address": "Likoni-Ukunda Road, Likoni",
    "city": "Likoni",
    "county": "Mombasa",
    "brand": null,
    "latitude": -4.082408,
    "longitude": 39.6582265,
    "phone": null,
    "hours": null
  },
  {
    "name": "National Oil Corporation-Star Lubricants",
    "address": "Likoni-Ukunda Road, Likoni",
    "city": "Likoni",
    "county": "Mombasa",
    "brand": "National Oil",
    "latitude": -4.1199954,
    "longitude": 39.6342319,
    "phone": null,
    "hours": null
  },
  {
    "name": "Total Likoni Ferry Service Station",
    "address": "Likoni-Ukunda Road, Likoni",
    "city": "Likoni",
    "county": "Mombasa",
    "brand": "TotalEnergies",
    "latitude": -4.0846213,
    "longitude": 39.6594283,
    "phone": null,
    "hours": null
  },
  {
    "name": "Check Point Filling Station",
    "address": "Old Malindi Road, Mombasa",
    "city": "Mombasa",
    "county": "Mombasa",
    "brand": null,
    "latitude": -4.0327447,
    "longitude": 39.6831462,
    "phone": null,
    "hours": null
  },
  {
    "name": "EAGOL Jomvu Yard",
    "address": "Mombasa Road, Mombasa",
    "city": "Mombasa",
    "county": "Mombasa",
    "brand": null,
    "latitude": -4.0056564,
    "longitude": 39.5955225,
    "phone": null,
    "hours": null
  },
  {
    "name": "Eppic Baobab",
    "address": "Malindi Road, Mombasa",
    "city": "Mombasa",
    "county": "Mombasa",
    "brand": "EPPIC",
    "latitude": -4.009442,
    "longitude": 39.7233246,
    "phone": null,
    "hours": null
  },
  {
    "name": "Hass",
    "address": "Mombasa Road, Mombasa",
    "city": "Mombasa",
    "county": "Mombasa",
    "brand": "Hass Petroleum",
    "latitude": -4.0146414,
    "longitude": 39.6325627,
    "phone": null,
    "hours": null
  },
  {
    "name": "JOHARI FASHIONS",
    "address": "Jomo Kenyatta Road, Mombasa",
    "city": "Mombasa",
    "county": "Mombasa",
    "brand": null,
    "latitude": -4.0571624,
    "longitude": 39.6924245,
    "phone": null,
    "hours": null
  },
  {
    "name": "Kenol Kobil Mombasa Road",
    "address": "Mombasa Road, Mombasa",
    "city": "Mombasa",
    "county": "Mombasa",
    "brand": "Kenol Kobil",
    "latitude": -4.0064902,
    "longitude": 39.6040845,
    "phone": null,
    "hours": null
  },
  {
    "name": "Kobil Kiembeni",
    "address": "Old Malindi Road, Mombasa",
    "city": "Mombasa",
    "county": "Mombasa",
    "brand": "Kenol Kobil",
    "latitude": -4.0040483,
    "longitude": 39.698422,
    "phone": null,
    "hours": null
  },
  {
    "name": "Mack Petrol Station",
    "address": "Likoni-Ukunda Road, Mombasa",
    "city": "Mombasa",
    "county": "Mombasa",
    "brand": null,
    "latitude": -4.0982945,
    "longitude": 39.6451878,
    "phone": null,
    "hours": null
  },
  {
    "name": "Mikindani Petrol Station",
    "address": "Mombasa Road, Mombasa",
    "city": "Mombasa",
    "county": "Mombasa",
    "brand": null,
    "latitude": -4.0089005,
    "longitude": 39.6272623,
    "phone": null,
    "hours": null
  },
  {
    "name": "National Oil",
    "address": "Abdel Nasser Road, Mombasa",
    "city": "Mombasa",
    "county": "Mombasa",
    "brand": "National Oil",
    "latitude": -4.0576261,
    "longitude": 39.6729368,
    "phone": null,
    "hours": null
  },
  {
    "name": "National Oil",
    "address": "Sheikh Abdullas F.Road, Mombasa",
    "city": "Mombasa",
    "county": "Mombasa",
    "brand": "National Oil",
    "latitude": -4.0513522,
    "longitude": 39.6740295,
    "phone": null,
    "hours": null
  },
  {
    "name": "National Oil",
    "address": "Mombasa road, Mombasa",
    "city": "Mombasa",
    "county": "Mombasa",
    "brand": "National Oil",
    "latitude": -4.051908,
    "longitude": 39.6655823,
    "phone": null,
    "hours": null
  },
  {
    "name": "National Oil Corporation-Mackinon",
    "address": "Archbishop Makarios Road, Mombasa",
    "city": "Mombasa",
    "county": "Mombasa",
    "brand": "National Oil",
    "latitude": -4.0637252,
    "longitude": 39.6611115,
    "phone": null,
    "hours": null
  },
  {
    "name": "National Oil- Changamwe",
    "address": "Magongo road, Mombasa",
    "city": "Mombasa",
    "county": "Mombasa",
    "brand": "National Oil",
    "latitude": -4.028802,
    "longitude": 39.6299487,
    "phone": null,
    "hours": null
  },
  {
    "name": "Oilcom",
    "address": "Mombasa road, Mombasa",
    "city": "Mombasa",
    "county": "Mombasa",
    "brand": "Oilcom",
    "latitude": -4.042788,
    "longitude": 39.6583899,
    "phone": null,
    "hours": null
  },
  {
    "name": "Oilcom Petrol Station",
    "address": "Likoni-Ukunda Road, Mombasa",
    "city": "Mombasa",
    "county": "Mombasa",
    "brand": "Oilcom",
    "latitude": -4.0877814,
    "longitude": 39.6524154,
    "phone": null,
    "hours": null
  },
  {
    "name": "Oilibya Mombasa Lpg",
    "address": "Kismayu Road, Mombasa",
    "city": "Mombasa",
    "county": "Mombasa",
    "brand": "Oilibya",
    "latitude": -4.0409485,
    "longitude": 39.6465895,
    "phone": null,
    "hours": null
  },
  {
    "name": "OLA",
    "address": "Kismayu Road, Mombasa",
    "city": "Mombasa",
    "county": "Mombasa",
    "brand": "OLA Energy",
    "latitude": -4.0421309,
    "longitude": 39.6447479,
    "phone": null,
    "hours": null
  },
  {
    "name": "OLA Energy",
    "address": "Nyerere Road, Mombasa",
    "city": "Mombasa",
    "county": "Mombasa",
    "brand": "OLA Energy",
    "latitude": -4.0673685,
    "longitude": 39.670419,
    "phone": null,
    "hours": null
  },
  {
    "name": "OLA Energy",
    "address": "Maalim Juma Mohamed Road, Mombasa",
    "city": "Mombasa",
    "county": "Mombasa",
    "brand": "OLA Energy",
    "latitude": -4.0537673,
    "longitude": 39.6730287,
    "phone": null,
    "hours": null
  },
  {
    "name": "OLA Energy",
    "address": "Haile Selassie Road, Mombasa",
    "city": "Mombasa",
    "county": "Mombasa",
    "brand": "OLA Energy",
    "latitude": -4.0595281,
    "longitude": 39.6685675,
    "phone": null,
    "hours": null
  },
  {
    "name": "OLA Energy",
    "address": "Kengelani road, Mombasa",
    "city": "Mombasa",
    "county": "Mombasa",
    "brand": "Oilibya",
    "latitude": -4.0387107,
    "longitude": 39.680057,
    "phone": null,
    "hours": null
  },
  {
    "name": "OLA Energy",
    "address": "Ronald Ngala Road, Mombasa",
    "city": "Mombasa",
    "county": "Mombasa",
    "brand": "Oilibya",
    "latitude": -4.0452926,
    "longitude": 39.6613037,
    "phone": null,
    "hours": null
  },
  {
    "name": "Petro",
    "address": "Sheikh Abdullas F.Road, Mombasa",
    "city": "Mombasa",
    "county": "Mombasa",
    "brand": "Petro Oil",
    "latitude": -4.0460685,
    "longitude": 39.6695071,
    "phone": null,
    "hours": null
  },
  {
    "name": "Petro Premier Ferry",
    "address": "Nyerere Avenue, Mombasa",
    "city": "Mombasa",
    "county": "Mombasa",
    "brand": "Petro Oil",
    "latitude": -4.0726002,
    "longitude": 39.6671369,
    "phone": null,
    "hours": null
  },
  {
    "name": "Petro Utange",
    "address": "Old Malindi Road, Mombasa",
    "city": "Mombasa",
    "county": "Mombasa",
    "brand": "Petro Oil",
    "latitude": -3.985823,
    "longitude": 39.7136889,
    "phone": null,
    "hours": null
  },
  {
    "name": "Petrocity",
    "address": "Mombasa road, Mombasa",
    "city": "Mombasa",
    "county": "Mombasa",
    "brand": "Petrocity",
    "latitude": -4.0273677,
    "longitude": 39.6348725,
    "phone": null,
    "hours": null
  },
  {
    "name": "Petrocity Bamburi",
    "address": "Malindi Road, Mombasa",
    "city": "Mombasa",
    "county": "Mombasa",
    "brand": "Petrocity",
    "latitude": -3.9837493,
    "longitude": 39.7380065,
    "phone": null,
    "hours": null
  },
  {
    "name": "Rubis",
    "address": "Links Road, Mombasa",
    "city": "Mombasa",
    "county": "Mombasa",
    "brand": "Rubis",
    "latitude": -4.0208861,
    "longitude": 39.7198221,
    "phone": null,
    "hours": null
  },
  {
    "name": "Shell",
    "address": "Nyerere Road, Mombasa",
    "city": "Mombasa",
    "county": "Mombasa",
    "brand": "Shell",
    "latitude": -4.0642445,
    "longitude": 39.6712407,
    "phone": null,
    "hours": null
  },
  {
    "name": "Shell",
    "address": "Nyali road, Mombasa",
    "city": "Mombasa",
    "county": "Mombasa",
    "brand": "Shell",
    "latitude": -4.0404498,
    "longitude": 39.6782659,
    "phone": null,
    "hours": null
  },